"POS. '22","POS. '21","RAGIONE SOCIALE","SEDE","longitude","latitude","display_name","accuracy","locality","province","post_code","country","country_code","service","PROV","FATTURATO ‘20","FATTURATO ’19","UTILE ‘20","UTILE ’19","ROS ‘20","ROS ‘19","ROE ‘20","ROE ‘19","COD_REG","Provincia","DEN_REG"
"1",1,"DHL (GRUPPO)","Peschiera Borromeo, Milano, Lombardia, Italia",9.3045703113961,45.4425059,"Peschiera Borromeo, Milano, Lombardia, 20068, Italia",1.03506405471084,"NULL","NULL","20068","Italia","it","openstreetmap","MI","1.888.109.013","1.861.017.599","37.953.444","39.399.107","2,01","2,12",NA,NA,3,"Milano","Lombardia"
"2",2,"SAVINO DEL BENE GROUP","Firenze, Firenze, Toscana, Italia",11.2555757,43.7698712,"Firenze, Toscana, Italia",1.15056330285024,"NULL","NULL","NULL","Italia","it","openstreetmap","FI","1.590.659.900","1.601.439.812","35.881.139","27.867.879","2,26","1,74","16,53","14,33",9,"Firenze","Toscana"
"3",3,"BRT SPA","Bologna, Bologna, Emilia-Romagna, Italia",11.3426327,44.4938203,"Bologna, Emilia-Romagna, Italia",1.21057711092684,"NULL","NULL","NULL","Italia","it","openstreetmap","BO","1.556.245.416","1.466.412.195","21.543.889","25.709.429","1,38","1,75","28,53","26,93",8,"Bologna","Emilia-Romagna"
"4",4,"TNT GLOBAL EXPRESS","Torino, Torino, Piemonte, Italia",7.6824892,45.0677551,"Torino, Piemonte, Italia",1.14680623875777,"NULL","NULL","NULL","Italia","it","openstreetmap","TO","1.048.076.896","1.127.616.106","16.886.191","18.783.711","1,61","1,67","16,16","21,44",1,"Torino","Piemonte"
"5",9,"SDA EXPRESS COURIER SPA","Roma, Roma, Lazio, Italia",12.4829321,41.8933203,"Roma, Roma Capitale, Lazio, Italia",1.22961071806895,"NULL","NULL","NULL","Italia","it","openstreetmap","RM","922.421.741","667.015.191","45.457.437","-32.091.290","4,93","-4,81","76,42","-226,38",12,"Roma","Lazio"
"6",5,"FERCAM GROUP (CONS.)","Bolzano, Bolzano, Trentino-Alto Adige, Italia",11.3547801,46.4981125,"Bolzano - Bozen, Trentino-Alto Adige/Südtirol, Italia",1.20665748602421,"NULL","NULL","NULL","Italia","it","openstreetmap","BZ","814.389.764","831.249.196","10.158.434","4.646.928","1,25","0,56","12,30","10,80",4,"Bolzano","Trentino-Alto Adige"
"7",6,"UNITED PARCEL SERVICE ITALIA SRL","Milano, Milano, Lombardia, Italia",9.1896346,45.4641943,"Milano, Lombardia, Italia",1.17906520787013,"NULL","NULL","NULL","Italia","it","openstreetmap","MI","770.827.747","723.573.906","19.333.568","23.629.699","2,51","3,27","23,50","37,54",3,"Milano","Lombardia"
"8",7,"SCHENKER ITALIANA SPA","Peschiera Borromeo, Milano, Lombardia, Italia",9.3045703113961,45.4425059,"Peschiera Borromeo, Milano, Lombardia, 20068, Italia",1.03506405471084,"NULL","NULL","20068","Italia","it","openstreetmap","MI","717.776.683","698.442.473","7.783.486","12.194.434","1,08","1,75","9,89","15,29",3,"Milano","Lombardia"
"9",10,"DSV SPA","Pioltello, Milano, Lombardia, Italia",9.3263354,45.5010216,"Pioltello, Milano, Lombardia, Italia",0.943583014922319,"NULL","NULL","NULL","Italia","it","openstreetmap","MI","634.589.445","663.100.635","4.208.683","11.559.844","0,66","1,74","3,12","8,28",3,"Milano","Lombardia"
"10",8,"ARCESE TRASPORTI (HOLDING)","Arco, Trento, Trentino-Alto Adige, Italia",10.8860953,45.9181327,"Arco, Comunità Alto Garda e Ledro, Provincia di Trento, Trentino-Alto Adige/Südtirol, 38062, Italia",1.14400356254449,"NULL","NULL","38062","Italia","it","openstreetmap","TN","630.296.451","670.708.519","12.610.067","9.082.660","2,00","1,35","5,62","5,97",4,"Trento","Trentino-Alto Adige"
"11",19,"AMAZON ITALIA LOGISTICA SRL","Milano, Milano, Lombardia, Italia",9.1896346,45.4641943,"Milano, Lombardia, Italia",1.17906520787013,"NULL","NULL","NULL","Italia","it","openstreetmap","MI","608.779.774","365.945.770","16.788.147","13.183.310","2,76","3,60","5,51","5,02",3,"Milano","Lombardia"
"12",13,"GLS ITALY (RAGGR.)","San Giuliano Milanese, Milano, Lombardia, Italia",9.291851,45.39427,"San Giuliano Milanese, Milano, Lombardia, 20098, Italia",1.13497891531428,"NULL","NULL","20098","Italia","it","openstreetmap","MI","599.441.325","579.949.162","33.714.058","65.261.076","5,62","11,25",NA,NA,3,"Milano","Lombardia"
"13",11,"KUEHNE & NAGEL SPA","Milano, Milano, Lombardia, Italia",9.1896346,45.4641943,"Milano, Lombardia, Italia",1.17906520787013,"NULL","NULL","NULL","Italia","it","openstreetmap","MI","561.844.006","613.244.343","5.517.080","2.540.811","0,98","0,41","34,64","26,27",3,"Milano","Lombardia"
"14",14,"BCUBE SPA","Casale Monferrato, Alessandria, Piemonte, Italia",8.4498127,45.1362661,"Casale Monferrato, Alessandria, Piemonte, 15033, Italia",1.09048696587971,"NULL","NULL","15033","Italia","it","openstreetmap","AL","527.583.589","565.518.812",NA,"5.656.340",NA,"1,00",NA,NA,1,"Alessandria","Piemonte"
"15",16,"J.A.S. JET AIR SERVICE SPA","Segrate, Milano, Lombardia, Italia",9.2948204,45.4907352,"Segrate, Milano, Lombardia, 20054, Italia",0.945606179366181,"NULL","NULL","20054","Italia","it","openstreetmap","MI","467.274.748","429.342.747","3.229.491","3.157.327","0,69","0,74","11,76","13,03",3,"Milano","Lombardia"
"16",12,"HAVI LOGISTICS SRL","Bomporto, Modena, Emilia-Romagna, Italia",11.038401,44.72977,"Bomporto, Unione dei comuni del Sorbara, Modena, Emilia-Romagna, 41030, Italia",0.970763208217893,"NULL","NULL","41030","Italia","it","openstreetmap","MO","440.261.859","599.178.289","-236.413","2.451.632","-0,05","0,41","-7,08","39,09",8,"Modena","Emilia-Romagna"
"17",18,"GEODIS (AGGR.)","Milano, Milano, Lombardia, Italia",9.1896346,45.4641943,"Milano, Lombardia, Italia",1.17906520787013,"NULL","NULL","NULL","Italia","it","openstreetmap","MI","400.462.408","377.604.343","3.820.521","3.605.997","0,95","0,95",NA,NA,3,"Milano","Lombardia"
"18",15,"TRANSMEC GROUP (AGGR.)","Campogalliano, Modena, Emilia-Romagna, Italia",10.8407336,44.6905118,"Campogalliano, Unione delle Terre d'Argine, Modena, Emilia-Romagna, 41011, Italia",0.971004242546897,"NULL","NULL","41011","Italia","it","openstreetmap","MO","388.500.000","440.800.000","14.800.000","11.500.000","3,81","2,61",NA,NA,8,"Modena","Emilia-Romagna"
"19",17,"RHENUS LOGISTICS (CONS.)","Buccinasco, Milano, Lombardia, Italia",9.1082675,45.4223013,"Buccinasco, Milano, Lombardia, 20090, Italia",0.943460884154652,"NULL","NULL","20090","Italia","it","openstreetmap","MI","354.399.000","382.470.273","2.356.000","3.139.416","0,66","0,82","5,74","8,09",3,"Milano","Lombardia"
"20",20,"GRUBER (HOLDING)","Ora, Bolzano, Trentino-Alto Adige, Italia",11.2986335,46.3465946,"Auer - Ora, Überetsch-Unterland - Oltradige-Bassa Atesina, Bolzano - Bozen, Trentino-Alto Adige/Südtirol, Italia",1.10744856447802,"NULL","NULL","NULL","Italia","it","openstreetmap","BZ","341.863.232","357.234.534","545.795","1.890.557","0,16","0,53","2,37","5,18",4,"Bolzano","Trentino-Alto Adige"
"21",26,"ITALTRANS SPA","San Paolo d'Argon, Bergamo, Lombardia, Italia",9.8040661,45.6885572,"San Paolo d'Argon, Bergamo, Lombardia, Italia",1.25300692644815,"NULL","NULL","NULL","Italia","it","openstreetmap","BG","333.971.411","289.986.596","9.030.116","5.767.690","2,70","1,99","12,51","14,66",3,"Bergamo","Lombardia"
"22",22,"CODOGNOTTO GROUP (CONS.)","Salgareda, Treviso, Veneto, Italia",12.4925871,45.704123,"Salgareda, Treviso, Veneto, Italia",0.904055385847173,"NULL","NULL","NULL","Italia","it","openstreetmap","TV","313.703.728","320.940.239","2.859.503","2.808.969","0,91","0,88",NA,NA,5,"Treviso","Veneto"
"23",25,"NUMBER 1 LOGISTICS (GRP FISI)","Parma, Parma, Emilia-Romagna, Italia",10.3280833,44.8013678,"Parma, Emilia-Romagna, Italia",1.15557342401684,"NULL","NULL","NULL","Italia","it","openstreetmap","PR","306.417.206","293.775.358","1.233.973","722.259","0,40","0,25","4,29","2,57",8,"Parma","Emilia-Romagna"
"24",23,"XPO LOGISTICS (GRUPPO)","Settala, Milano, Lombardia, Italia",9.3867659,45.4544127,"Settala, Milano, Lombardia, 20049, Italia",0.939493698084709,"NULL","NULL","20049","Italia","it","openstreetmap","MI","292.997.006","316.237.780","10.229.862","13.538.726","3,49","4,28",NA,NA,3,"Milano","Lombardia"
"25",24,"S.D.M. SOC. DISTRIB. MERCI SRL","Bologna, Bologna, Emilia-Romagna, Italia",11.3426327,44.4938203,"Bologna, Emilia-Romagna, Italia",1.21057711092684,"NULL","NULL","NULL","Italia","it","openstreetmap","BO","285.233.590","294.879.994","4.987.621","5.062.936","1,75","1,72","3,58","3,77",8,"Bologna","Emilia-Romagna"
"26",46,"NIPPON EXPRESS ITALIA SPA","Scandicci, Firenze, Toscana, Italia",11.1847619,43.7567104,"Scandicci, Firenze, Toscana, 50018, Italia",0.926499786509743,"NULL","NULL","50018","Italia","it","openstreetmap","FI","281.955.233","143.403.175","8.234.308","3.740.203","2,92","2,61","14,87","15,01",9,"Firenze","Toscana"
"27",21,"CEVA LOGISTICS ITALIA SRL","Assago, Milano, Lombardia, Italia",9.1313547,45.4053966,"Assago, Milano, Lombardia, 20057, Italia",0.947711916049614,"NULL","NULL","20057","Italia","it","openstreetmap","MI","276.494.756","326.599.163","-17.115.820","-19.294.433","-6,19","-5,91","-101,61","-107,43",3,"Milano","Lombardia"
"28",NA,"SMET SPA (CONSOL.)","Salerno, Salerno, Campania, Italia",14.7594542,40.6803601,"Salerno, Campania, Italia",1.03459844517079,"NULL","NULL","NULL","Italia","it","openstreetmap","SA","267.906.315","235.627.751","5.837.852","1.353.700","2,18","0,57","8,35","2,16",15,"Salerno","Campania"
"29",27,"STEF ITALIA SPA","San Prospero, Parma, Emilia-Romagna, Italia",10.3978943,44.7842768,"Villa Italia, San Lazzaro, San Prospero Parmense, Parma, Emilia-Romagna, 43123, Italia",0.82001,"San Lazzaro","NULL","43123","Italia","it","openstreetmap","PR","263.247.553","281.046.128","7.756.942","9.368.467","2,95","3,33","13,92","17,83",8,"Parma","Emilia-Romagna"
"30",37,"CONSORZIO LOGIST. PACCHI SCPA","Roma, Roma, Lazio, Italia",12.4829321,41.8933203,"Roma, Roma Capitale, Lazio, Italia",1.22961071806895,"NULL","NULL","NULL","Italia","it","openstreetmap","RM","230.069.601","177.666.966",NA,NA,NA,NA,NA,NA,12,"Roma","Lazio"
"31",31,"U. DEL CORONA & SCARDIGLI SRL","Livorno, Livorno, Toscana, Italia",10.3091256,43.5507317,"Livorno, Toscana, Italia",1.04561736625449,"NULL","NULL","NULL","Italia","it","openstreetmap","LI","208.139.437","189.061.688","5.716.256","5.242.042","2,75","2,77","13,47","14,11",9,"Livorno","Toscana"
"32",30,"ARCO SPEDIZIONI SPA","Monza, Monza e della Brianza, Lombardia, Italia",9.2735257,45.5834418,"Monza, Monza e della Brianza, Lombardia, 20900, Italia",1.32593659581698,"NULL","NULL","20900","Italia","it","openstreetmap","MB","207.746.376","198.131.516","15.572.634","6.367.671","7,50","3,21","25,57","14,36",3,"Monza e della Brianza","Lombardia"
"33",NA,"GRUPPO ITALSEMPIONE SPA","Vittuone, Milano, Lombardia, Italia",8.952442,45.487969,"Vittuone, Milano, Lombardia, Italia",0.942987528170306,"NULL","NULL","NULL","Italia","it","openstreetmap","MI","201.593.277","201.312.318","2.906.493","2.868.598","1,44","1,42","12,61","14,33",3,"Milano","Lombardia"
"34",28,"CONTSHIP ITALIA GROUP","Melzo, Milano, Lombardia, Italia",9.4242513,45.4985848,"Melzo, Milano, Lombardia, 20066, Italia",0.947646679314894,"NULL","NULL","20066","Italia","it","openstreetmap","MI","197.214.014","275.435.000","29.355.829","63.836.000","14,89","23,18","7,76","28,30",3,"Milano","Lombardia"
"35",32,"TORELLO TRASPORTI (CONS.)","Montoro, Avellino, Campania, Italia",14.7917765,40.8328763,"Montoro, Avellino, Campania, 83025, Italia",0.874032993844314,"NULL","NULL","83025","Italia","it","openstreetmap","AV","196.890.195","182.605.524","1.552.565","990.426","0,79","0,54","6,98","5,82",15,"Avellino","Campania"
"36",NA,"PACORINI (GRUPPO)","Trieste, Trieste, Friuli Venezia Giulia, Italia",13.7772781,45.6496485,"Trieste, Friuli-Venezia Giulia, 34121-34151, Italia",1.27101328177223,"NULL","NULL","34121-34151","Italia","it","openstreetmap","TS","196.053.000","175.324.000","551.000","-3.799.000","0,28","-2,17",NA,NA,6,"Trieste","Friuli Venezia Giulia"
"37",63,"SAMAG HOLDING LOGISTICS","Milano, Milano, Lombardia, Italia",9.1896346,45.4641943,"Milano, Lombardia, Italia",1.17906520787013,"NULL","NULL","NULL","Italia","it","openstreetmap","MI","195.643.211","111.144.231","1.207.885","4.388.240","0,62","3,95","5,30","46,31",3,"Milano","Lombardia"
"38",34,"D.B. GROUP SPA (CONS.)","Montebelluna, Treviso, Veneto, Italia",12.0450646,45.7759956,"Montebelluna, Treviso, Veneto, Italia",0.931743573085588,"NULL","NULL","NULL","Italia","it","openstreetmap","TV","189.334.000","180.943.000","4.195.000","3.698.000","2,22","2,04","16,39","20,95",5,"Treviso","Veneto"
"39",39,"BRIVIO & VIGANO' HOLDING","Pozzuolo Martesana, Milano, Lombardia, Italia",9.456252,45.513975,"Pozzuolo Martesana, Milano, Lombardia, 20060, Italia",1.02895117232271,"NULL","NULL","20060","Italia","it","openstreetmap","MI","188.579.513","164.925.270","7.731.836","965.809","4,10","0,59","17,96","4,78",3,"Milano","Lombardia"
"40",29,"MERCITALIA INTERMODAL SPA","Milano, Milano, Lombardia, Italia",9.1896346,45.4641943,"Milano, Lombardia, Italia",1.17906520787013,"NULL","NULL","NULL","Italia","it","openstreetmap","MI","186.061.193","199.208.805","-3.900.224","-2.766.068","-2,10","-1,39","-11,67","-7,41",3,"Milano","Lombardia"
"41",35,"ALBINI & PITIGLIANI SPA","Prato, Prato, Toscana, Italia",11.0969262,43.880598,"Prato, Toscana, 59100, Italia",0.990668145899851,"NULL","NULL","59100","Italia","it","openstreetmap","PO","169.042.592","180.908.851","1.905.043","6.848.225","1,13","3,79","3,00","11,07",9,"Prato","Toscana"
"42",44,"DE VIZIA TRANSFER SPA","Torino, Torino, Piemonte, Italia",7.6824892,45.0677551,"Torino, Piemonte, Italia",1.14680623875777,"NULL","NULL","NULL","Italia","it","openstreetmap","TO","160.986.958","154.589.593","13.748.306","4.827.534","8,54","3,12","25,86","13,54",1,"Torino","Piemonte"
"43",47,"INTERGLOBO SRL","Genova, Genova, Liguria, Italia",8.9338624,44.40726,"Genova, Liguria, Italia",1.12217796659308,"NULL","NULL","NULL","Italia","it","openstreetmap","GE","160.520.987","142.545.706","4.635.557","5.243.354","2,89","3,68","23,57","27,53",7,"Genova","Liguria"
"44",48,"BOMI GROUP (CONS.)","Spino d’Adda, Cremona, Lombardia, Italia",9.48559536665434,45.3930268,"Spino d'Adda, Cremona, Lombardia, 26016, Italia",1.11526872347221,"NULL","NULL","26016","Italia","it","openstreetmap","CR","151.933.979","142.000.000","-840.069",NA,"-0,55",NA,NA,NA,3,"Cremona","Lombardia"
"45",57,"CAL SRL SERVIZI LOGISTICI","San Giuliano Milanese, Milano, Lombardia, Italia",9.291851,45.39427,"San Giuliano Milanese, Milano, Lombardia, 20098, Italia",1.13497891531428,"NULL","NULL","20098","Italia","it","openstreetmap","MI","149.993.497","120.963.766","1.950.000","1.550.000","1,30","1,28",NA,NA,3,"Milano","Lombardia"
"46",40,"SUSA SPA","Corciano, Perugia, Umbria, Italia",12.287718,43.1290269,"Corciano, Perugia, Umbria, 06073, Italia",0.929725473759381,"NULL","NULL","06073","Italia","it","openstreetmap","PG","149.553.633","164.554.535","1.414.952","1.229.590","0,95","0,75","6,15","7,11",10,"Perugia","Umbria"
"47",41,"GIORGIO GORI SRL","Collesalvetti, Livorno, Toscana, Italia",10.476264,43.588912,"Collesalvetti, Livorno, Toscana, Italia",0.859042126246238,"NULL","NULL","NULL","Italia","it","openstreetmap","LI","148.566.223","161.855.966","7.468.209","13.234.452","5,03","8,18","13,49","27,62",9,"Livorno","Toscana"
"48",45,"AUTA MAROCCHI (CONS.)","Trieste, Trieste, Friuli Venezia Giulia, Italia",13.7772781,45.6496485,"Trieste, Friuli-Venezia Giulia, 34121-34151, Italia",1.27101328177223,"NULL","NULL","34121-34151","Italia","it","openstreetmap","TS","148.416.615","146.996.753","6.976.701","5.214.025","4,70","3,55","15,23","13,34",6,"Trieste","Friuli Venezia Giulia"
"49",64,"FAGIOLI SPA","S. Ilario d’Enza, Reggio nell'Emilia, Emilia-Romagna, Italia",10.4498922,44.7605046,"Sant'Ilario d'Enza, Val d’Enza, Reggio nell'Emilia, Emilia-Romagna, 42049, Italia",1.56987880062646,"NULL","NULL","42049","Italia","it","openstreetmap","RE","142.417.913","108.789.060","1.079.834","2.840.191","0,76","2,61","6,81","19,96",8,"Reggio nell'Emilia","Emilia-Romagna"
"50",33,"PEZZOLI PETROLI SRL","Bregnano, Como, Lombardia, Italia",9.0595206,45.6971263,"Bregnano, Como, Lombardia, 20150, Italia",0.939586756232197,"NULL","NULL","20150","Italia","it","openstreetmap","CO","138.779.701","181.364.778","1.584.510","733.038","1,14","0,40","10,21","5,08",3,"Como","Lombardia"
"51",36,"GEFCO ITALIA SPA","Pregnana Milanese, Milano, Lombardia, Italia",9.0080123,45.5158489,"Pregnana Milanese, Milano, Lombardia, 20006, Italia",1.02966110171693,"NULL","NULL","20006","Italia","it","openstreetmap","MI","135.526.105","180.511.148","5.592.828","3.761.746","4,13","2,08","43,35","33,98",3,"Milano","Lombardia"
"52",55,"TRANS ITALIA","Mercato San Severino, Salerno, Campania, Italia",14.7557276,40.7833028,"Mercato San Severino, Salerno, Campania, 84085, Italia",1.13637722297442,"NULL","NULL","84085","Italia","it","openstreetmap","SA","133.429.247","123.995.441","2.161.712","1.840.251","1,62","1,48","5,68","5,07",15,"Salerno","Campania"
"53",62,"EXPEDITORS INT.L ITALIA SRL","Segrate, Milano, Lombardia, Italia",9.2948204,45.4907352,"Segrate, Milano, Lombardia, 20054, Italia",0.945606179366181,"NULL","NULL","20054","Italia","it","openstreetmap","MI","131.111.567","113.079.821","4.355.035","2.561.462","3,32","2,27","80,62","31,83",3,"Milano","Lombardia"
"54",42,"GOLDENGAS SPA","Senigallia, Ancona, Marche, Italia",13.2179488,43.7149517,"Senigallia, Ancona, Marche, 60019, Italia",0.948473319548605,"NULL","NULL","60019","Italia","it","openstreetmap","AN","130.383.865","159.247.434","4.111.047","5.871.298","3,15","3,69","4,78","11,01",11,"Ancona","Marche"
"55",50,"T.O. DELTA SPA","Trieste, Trieste, Friuli Venezia Giulia, Italia",13.7772781,45.6496485,"Trieste, Friuli-Venezia Giulia, 34121-34151, Italia",1.27101328177223,"NULL","NULL","34121-34151","Italia","it","openstreetmap","TS","128.222.784","133.457.129","2.849.155","867.983","2,22","0,65","12,16","4,22",6,"Trieste","Friuli Venezia Giulia"
"56",61,"TRASPORTI ROMAGNA SPA","Malo, Vicenza, Veneto, Italia",11.407493,45.660296,"Malo, Vicenza, Veneto, 36034, Italia",0.940509690510419,"NULL","NULL","36034","Italia","it","openstreetmap","VI","127.192.320","116.762.606","965.803","-406.518","0,76","-0,35","2,89","-1,40",5,"Vicenza","Veneto"
"57",52,"TRANSCOOP COOPERATIVA","Reggio Emilia, Reggio nell'Emilia, Emilia-Romagna, Italia",10.6304971,44.6978389,"Reggio Emilia, Reggio nell'Emilia, Emilia-Romagna, Italia",1.38254117250657,"NULL","NULL","NULL","Italia","it","openstreetmap","RE","124.356.175","132.130.229","956.306","273.831","0,77","0,21","3,05","0,90",8,"Reggio nell'Emilia","Emilia-Romagna"
"58",59,"BRACCHI SPA","Fara Gera d'Adda, Bergamo, Lombardia, Italia",9.537853,45.555676,"Fara Gera d'Adda, Bergamo, Lombardia, 24045, Italia",1.25390336760371,"NULL","NULL","24045","Italia","it","openstreetmap","BG","119.528.261","119.548.850","-1.296.382","822.444","-1,08","0,69","-5,42","3,28",3,"Bergamo","Lombardia"
"59",60,"CAB LOG SRL","Noale, Venezia, Veneto, Italia",12.0720437,45.550156,"Noale, Venezia, Veneto, 30033, Italia",0.910343444135026,"NULL","NULL","30033","Italia","it","openstreetmap","VE","116.061.966","117.287.668","305.221","233.959","0,26","0,20","6,47","5,28",5,"Venezia","Veneto"
"60",53,"SPINELLI GROUP","Genova, Genova, Liguria, Italia",8.9338624,44.40726,"Genova, Liguria, Italia",1.12217796659308,"NULL","NULL","NULL","Italia","it","openstreetmap","GE","115.351.250","130.820.126","14.517.631","16.556.803","12,59","12,66","38,68","53,83",7,"Genova","Liguria"
"61",54,"CON.S.A.R. SOC.COOP. CONS.","Ravenna, Ravenna, Emilia-Romagna, Italia",12.2017617,44.4161414,"Ravenna, Emilia-Romagna, Italia",1.14698231321198,"NULL","NULL","NULL","Italia","it","openstreetmap","RA","111.700.611","127.834.163","105.150","231.259","0,09","0,18","0,47","1,04",8,"Ravenna","Emilia-Romagna"
"62",49,"MARCEVAGGI LOGISTIC GROUP","Locate Triulzi, Milano, Lombardia, Italia",9.2214959,45.3596816,"Locate Triulzi, Via Luigi Calori, Casa Flora, Locate di Triulzi, Milano, Lombardia, 20085, Italia",0.752549534893346,"NULL","NULL","20085","Italia","it","openstreetmap","MI","104.824.146","134.650.586","2.747.355","11.964.410","2,62","8,89",NA,NA,3,"Milano","Lombardia"
"63",67,"G.T.S. GENERAL TRANSPORT SERV.","Bari, Bari, Puglia, Italia",16.8620293,41.1257843,"Bari, Puglia, Italia",1.05871832125327,"NULL","NULL","NULL","Italia","it","openstreetmap","BA","103.612.140","100.668.390","3.698.934","2.560.477","3,57","2,54","23,92","20,72",16,"Bari","Puglia"
"64",78,"KORTIMED SRL","Collesalvetti, Livorno, Toscana, Italia",10.476264,43.588912,"Collesalvetti, Livorno, Toscana, Italia",0.859042126246238,"NULL","NULL","NULL","Italia","it","openstreetmap","LI","101.767.195","81.809.673","1.976.377","285.194","1,94","0,35","13,82","2,31",9,"Livorno","Toscana"
"65",110,"FOPPIANI SHIPPING & LOGISTICS","Prato, Prato, Toscana, Italia",11.0969262,43.880598,"Prato, Toscana, 59100, Italia",0.990668145899851,"NULL","NULL","59100","Italia","it","openstreetmap","PO","101.737.548","63.793.361","4.056.444","2.930.299","3,99","4,59","30,31","23,77",9,"Prato","Toscana"
"66",71,"FATA LOGISTIC SYSTEMS SPA","Pianezza, Torino, Piemonte, Italia",7.543418,45.105847,"Pianezza, Torino, Piemonte, 10044, Italia",0.977583496753862,"NULL","NULL","10044","Italia","it","openstreetmap","TO","95.428.000","90.777.000","1.057.000","4.707.000","1,11","5,19","21,13","54,47",1,"Torino","Piemonte"
"67",92,"TEMI SRL","Napoli, Napoli, Campania, Italia",14.2487679,40.8358846,"Napoli, Campania, Italia",1.14935065441882,"NULL","NULL","NULL","Italia","it","openstreetmap","NA","94.307.063","73.971.782","5.989.117","2.007.386","6,35","2,71","58,22","34,63",15,"Napoli","Campania"
"NA",68,"STANTE GROUP ITALY","Carinaro, Caserta, Campania, Italia",14.2189907,40.9835844,"Carinaro, Caserta, Campania, 81032, Italia",0.925759448486215,"NULL","NULL","81032","Italia","it","openstreetmap","CE","90.709.000","95.600.000","2.992.000","2.200.000","3,30","2,30",NA,"N.D.,",15,"Caserta","Campania"
"70",58,"RABEN SITTAM SRL","Cornaredo, Milano, Lombardia, Italia",9.025746,45.5016851,"Cornaredo, Milano, Lombardia, 20007, Italia",0.942775975104337,"NULL","NULL","20007","Italia","it","openstreetmap","MI","89.658.981","119.825.512","-8.915.980","-18.872.061","-9,94","-15,75","-657,40","N.D.,",3,"Milano","Lombardia"
"71",101,"BOLLORE' LOGISTICS ITALY","Pantigliate, Milano, Lombardia, Italia",9.352631,45.439548,"Pantigliate, Milano, Lombardia, Italia",0.940637805417904,"NULL","NULL","NULL","Italia","it","openstreetmap","MI","88.880.312","70.219.059","388.653","-138.354","0,44","-0,20","8,37","-3,25,",3,"Milano","Lombardia"
"72",56,"GRUPPO MERCURIO SPA","San Polo Torrile, Parma, Emilia-Romagna, Italia",10.3550043,44.8902978,"San Polo, Torrile, Parma, Emilia-Romagna, 43056, Italia",1.00501,"NULL","NULL","43056","Italia","it","openstreetmap","PR","87.509.685","123.085.428","3.961.229","4.890.212","4,53","3,97","11,22","14,83,",8,"Parma","Emilia-Romagna"
"73",69,"A.F. LOGISTICS SPA","Lodi, Lodi, Lombardia, Italia",9.503263,45.3138959,"Lodi, Lombardia, Italia",0.9837590510859,"NULL","NULL","NULL","Italia","it","openstreetmap","LO","87.470.268","93.764.051","591.559","-1.734.548","0,68","-1,85","1,01","-3,81,",3,"Lodi","Lombardia"
"74",70,"MULTILOGISTICS SPA","Liscate, Milano, Lombardia, Italia",9.4090115,45.4815487,"Liscate, Milano, Lombardia, 20050, Italia",0.940546321952432,"NULL","NULL","20050","Italia","it","openstreetmap","MI","86.489.992","92.128.819","100.752","2.902.260","0,12","3,15","1,65","56,85,",3,"Milano","Lombardia"
"75",80,"LOGISTICA UNO EUROPE (AGGR.)","Oppeano, Verona, Veneto, Italia",11.1823399,45.3062139,"Oppeano, Verona, Veneto, Italia",0.938213956486292,"NULL","NULL","NULL","Italia","it","openstreetmap","VR","86.300.000","81.105.217","3.800.000","1.475.304","4,40","1,82",NA,"N.D.,",5,"Verona","Veneto"
"76",73,"ZEROQUATTRO LOGISTICA SRL","Bologna, Bologna, Emilia-Romagna, Italia",11.3426327,44.4938203,"Bologna, Emilia-Romagna, Italia",1.21057711092684,"NULL","NULL","NULL","Italia","it","openstreetmap","BO","85.773.175","87.622.625","-2.144.547","1.130.861","-2,50","1,29","-51,63","17,95,",8,"Bologna","Emilia-Romagna"
"77",83,"CLO COOP. LAV. ORTOMERCATO","Siziano, Pavia, Lombardia, Italia",9.2011222,45.3174678,"Siziano, Pavia, Lombardia, Italia",0.948794489631159,"NULL","NULL","NULL","Italia","it","openstreetmap","PV","85.760.735","80.030.448","172.913","-737.315","0,20","-0,92","2,09","-9,81,",3,"Pavia","Lombardia"
"78",75,"F.LLI DI MARTINO SPA","Catania, Catania, Sicilia, Italia",15.0873718,37.5023612,"Catania, Sicilia, 95121, Italia",1.05212263789884,"NULL","NULL","95121","Italia","it","openstreetmap","CT","84.823.306","83.007.691","5.772.264","4.197.864","6,81","5,06","9,63","9,68,",19,"Catania","Sicilia"
"79",86,"EGL EAGLE GLOBAL LOGISTICS","Milano, Milano, Lombardia, Italia",9.1896346,45.4641943,"Milano, Lombardia, Italia",1.17906520787013,"NULL","NULL","NULL","Italia","it","openstreetmap","MI","83.181.330","77.478.079","744.159","96.123","0,89","0,12","8,36","1,18,",3,"Milano","Lombardia"
"80",82,"EURODIFARM SRL","Casalmaiocco, Lodi, Lombardia, Italia",9.374353,45.35387,"Casalmaiocco, Lodi, Lombardia, 26831, Italia",0.883502877001469,"NULL","NULL","26831","Italia","it","openstreetmap","LO","81.617.016","80.207.185","1.819.627","1.984.914","2,23","2,47","8,73","10,43,",3,"Lodi","Lombardia"
"81",84,"AGILITY LOGISTICS SRL","Verona, Verona, Veneto, Italia",10.9924122,45.4384958,"Verona, Veneto, Italia",1.08615738888285,"NULL","NULL","NULL","Italia","it","openstreetmap","VR","81.464.712","78.681.923","-905.042","-122.965","-1,11","-0,16","-13,96","-1,66,",5,"Verona","Veneto"
"82",76,"ONEEXPRESS ITALIA SRL","Bentivoglio, Bologna, Emilia-Romagna, Italia",11.4171933,44.6357918,"Bentivoglio, Unione Reno Galliera, Bologna, Emilia-Romagna, 40018, Italia",1.00723629065035,"NULL","NULL","40018","Italia","it","openstreetmap","BO","81.380.110","82.233.953","1.105.515","1.033.725","1,36","1,26","24,37","26,44,",8,"Bologna","Emilia-Romagna"
"83",81,"MESAROLI LOGISTICA","Trevenzuolo, Verona, Veneto, Italia",10.9321839,45.2686492,"Trevenzuolo, Verona, Veneto, Italia",0.935512308925002,"NULL","NULL","NULL","Italia","it","openstreetmap","VR","81.057.804","80.560.831","1.087.426","445.931","1,34","0,55","14,49","6,95,",5,"Verona","Veneto"
"84",88,"NAPOLITRANS SRL","Eboli, Salerno, Campania, Italia",15.0569438,40.6175146,"Eboli, Salerno, Campania, 84025, Italia",0.951795442599009,"NULL","NULL","84025","Italia","it","openstreetmap","SA","80.336.472","76.533.490","6.027.079","2.940.230","7,50","3,84","36,36","27,87,",15,"Salerno","Campania"
"85",104,"ITALIAN PALLET NETWORK SRL","Fiorenzuola d'Arda, Piacenza, Emilia-Romagna, Italia",9.9107218,44.9280841,"Fiorenzuola d'Arda, Piacenza, Emilia-Romagna, 29017, Italia",1.20519829985071,"NULL","NULL","29017","Italia","it","openstreetmap","PC","79.552.624","68.397.578","2.128.425","1.625.277","2,68","2,38","25,72","37,39,",8,"Piacenza","Emilia-Romagna"
"86",102,"ELPE GLOBAL LOGISTIC SERV. SPA","Torino, Torino, Piemonte, Italia",7.6824892,45.0677551,"Torino, Piemonte, Italia",1.14680623875777,"NULL","NULL","NULL","Italia","it","openstreetmap","TO","77.358.061","69.526.621","-1.739.384","790.358","-2,25","1,14",NA,"211,52,",1,"Torino","Piemonte"
"87",90,"AMBROGIO TRASPORTI SPA","Gallarate, Varese, Lombardia, Italia",8.7932013,45.6598951,"Gallarate, Varese, Lombardia, 21013, Italia",0.964352967647625,"NULL","NULL","21013","Italia","it","openstreetmap","VA","76.266.411","76.187.107","-1.203.525","1.070.046","-1,58","1,40","-3,46","4,07,",3,"Varese","Lombardia"
"88",120,"GRUPPO TGROUP","Nola, Napoli, Campania, Italia",14.5327402,40.9210826,"Nola, Napoli, Campania, Italia",0.964774599388302,"NULL","NULL","NULL","Italia","it","openstreetmap","NA","75.928.166","60.141.070","2.709.936","1.479.393","3,57","2,46","9,00","23,00,",15,"Napoli","Campania"
"89",77,"PALLETWAYS ITALIA SRL","Calderara di Reno, Bologna, Emilia-Romagna, Italia",11.271693,44.5630515,"Calderara di Reno, Unione Terre d'Acqua, Bologna, Emilia-Romagna, 40012, Italia",1.19455976235788,"NULL","NULL","40012","Italia","it","openstreetmap","BO","75.391.250","81.914.834",NA,"-1.491.515",NA,"-1,82",NA,"-37,36,",8,"Bologna","Emilia-Romagna"
"90",89,"LOGTAINER SRL","Genova, Genova, Liguria, Italia",8.9338624,44.40726,"Genova, Liguria, Italia",1.12217796659308,"NULL","NULL","NULL","Italia","it","openstreetmap","GE","73.654.253","76.318.132","2.542.059","2.696.782","3,45","3,53","32,08","40,97,",7,"Genova","Liguria"
"91",79,"LANNUTTI SPA","Cuneo, Cuneo, Piemonte, Italia",7.5479007,44.389633,"Cuneo, Piemonte, 12100, Italia",1.02320608897773,"NULL","NULL","12100","Italia","it","openstreetmap","CN","73.356.642","81.194.110","12.597.694","3.067.682","17,17","3,78","13,35","3,69,",1,"Cuneo","Piemonte"
"92",74,"GERMANI TRASPORTI","San Zeno Naviglio, Brescia, Lombardia, Italia",10.2170575,45.4915723,"San Zeno Naviglio, Brescia, Lombardia, Italia",1.15040930644855,"NULL","NULL","NULL","Italia","it","openstreetmap","BS","72.292.343","83.030.385","8.493.207","6.409.907","11,75","7,72","16,07","14,44,",3,"Brescia","Lombardia"
"93",98,"BOXLINE UNITED CARGO LINK SRL","Pero, Milano, Lombardia, Italia",9.0894415,45.5101617,"Pero, Milano, Lombardia, 20016, Italia",0.939957590078831,"NULL","NULL","20016","Italia","it","openstreetmap","MI","69.793.958","70.308.858","597.899","142.876","0,86","0,20","39,87","15,85,",3,"Milano","Lombardia"
"94",112,"SAMER GROUP","Trieste, Trieste, Friuli Venezia Giulia, Italia",13.7772781,45.6496485,"Trieste, Friuli-Venezia Giulia, 34121-34151, Italia",1.27101328177223,"NULL","NULL","34121-34151","Italia","it","openstreetmap","TS","68.662.271","62.183.600","2.329.509","1.585.519","3,39","2,55",NA,"N.D.,",6,"Trieste","Friuli Venezia Giulia"
"95",111,"ZETA SYSTEM SRL","Matera, Matera, Basilicata, Italia",16.6063265,40.667029,"Matera, Basilicata, 75100, Italia",0.982186077075587,"NULL","NULL","75100","Italia","it","openstreetmap","MT","67.951.621","62.706.448","3.541.324","2.137.093","5,21","3,41","40,23","40,61,",17,"Matera","Basilicata"
"96",96,"MERCITALIA LOGISTICS SPA","Roma, Roma, Lazio, Italia",12.4829321,41.8933203,"Roma, Roma Capitale, Lazio, Italia",1.22961071806895,"NULL","NULL","NULL","Italia","it","openstreetmap","RM","66.282.702","71.387.677","4.746.899","9.775.158","7,16","13,69","2,39","5,04,",12,"Roma","Lazio"
"97",43,"NEXIVE SPA","Milano, Milano, Lombardia, Italia",9.1896346,45.4641943,"Milano, Lombardia, Italia",1.17906520787013,"NULL","NULL","NULL","Italia","it","openstreetmap","MI","65.261.796","158.981.315","-13.135.599","-39.267.165","-20,13","-24,70",NA,"N.D.,",3,"Milano","Lombardia"
"98",97,"J.F. HILLEBRAND ITALIA SPA","Sesto Fiorentino, Firenze, Toscana, Italia",11.1992239,43.831721,"Sesto Fiorentino, Firenze, Toscana, Italia",1.0141082712961,"NULL","NULL","NULL","Italia","it","openstreetmap","FI","65.072.394","70.342.283","1.676.855","2.413.843","2,58","3,43","39,56","48,51,",9,"Firenze","Toscana"
"99",107,"FIEGE LOGISTICS ITALIA SRL","Arese, Italia",9.0782851,45.5499106,"Arese, Milano, Lombardia, 20044, Italia",0.726393878129063,"NULL","NULL","20044","Italia","it","openstreetmap","VA","64.834.950","66.382.294","3.741.870","3.480.217","5,77","5,24","53,43","61,15,",3,"Varese","Lombardia"
"100",95,"SNATT (CONS.)","Campegine, Reggio nell'Emilia, Emilia-Romagna, Italia",10.5284188,44.7817335,"Campegine, Val d’Enza, Reggio nell'Emilia, Emilia-Romagna, 42040, Italia",1.18061818703586,"NULL","NULL","42040","Italia","it","openstreetmap","RE","64.041.093","71.987.523","843.616","1.110.748","1,32","1,54",NA,"N.D.,",8,"Reggio nell'Emilia","Emilia-Romagna"
"101",121,"LOGICOMPANY 3 SRL (LC3)","Gubbio, Perugia, Umbria, Italia",12.5772674,43.3517882,"Gubbio, Perugia, Umbria, 06024, Italia",0.973816302255473,"NULL","NULL","06024","Italia","it","openstreetmap","PG","63.757.527","58.603.610","2.818.424","671.099","4,42","1,15","35,54","12,14,",10,"Perugia","Umbria"
"102",127,"FM ITALIA SRL","Trofarello, Torino, Piemonte, Italia",7.745225,44.983646,"Trofarello, Torino, Piemonte, 10028, Italia",0.976418005157695,"NULL","NULL","10028","Italia","it","openstreetmap","TO","63.454.884","56.910.112","-1.150.880","-360.934","-1,81","-0,63","-124,30","N.D.,",1,"Torino","Piemonte"
"103",103,"XLOG SRL","Trevignano, Treviso, Veneto, Italia",12.0940161,45.733501,"Trevignano, Treviso, Veneto, Italia",0.84001,"NULL","NULL","NULL","Italia","it","openstreetmap","TV","63.386.000","68.871.000","1.099.000","1.755.000","1,73","2,55","13,24","24,47,",5,"Treviso","Veneto"
"104",109,"INTERMODALTRASPORTI SRL","Ferentino, Frosinone, Lazio, Italia",13.2534215,41.692932,"Ferentino, Frosinone, Lazio, 03013, Italia",0.924418282083929,"NULL","NULL","03013","Italia","it","openstreetmap","FR","63.243.117","64.031.014","2.015.309","1.644.558","3,19","2,57","9,49","10,21,",12,"Frosinone","Lazio"
"105",87,"QUICK SERVICE LOGISTICS  SRL","Bolzano, Bolzano, Trentino-Alto Adige, Italia",11.3547801,46.4981125,"Bolzano - Bozen, Trentino-Alto Adige/Südtirol, Italia",1.20665748602421,"NULL","NULL","NULL","Italia","it","openstreetmap","BZ","62.757.386","76.946.574","718.931","945.473","1,15","1,23","18,77","30,39,",4,"Bolzano","Trentino-Alto Adige"
"106",106,"STEF NOGAROLE (EX NAGEL ITALIA)","Nogarole Rocca, Verona, Veneto, Italia",10.883788,45.291882,"Nogarole Rocca, Verona, Veneto, Italia",1.02844173278265,"NULL","NULL","NULL","Italia","it","openstreetmap","VR","61.807.000","67.064.687","1.758.000","1.055.365","2,84","1,57",NA,"N.D.,",5,"Verona","Veneto"
"107",117,"VISA GLOBAL LOGISTICS","Reggio Emilia, Reggio nell'Emilia, Emilia-Romagna, Italia",10.6304971,44.6978389,"Reggio Emilia, Reggio nell'Emilia, Emilia-Romagna, Italia",1.38254117250657,"NULL","NULL","NULL","Italia","it","openstreetmap","RE","61.291.097","60.464.554","-1.159.300","237.353","-1,89","0,39","-59,11","7,61,",8,"Reggio nell'Emilia","Emilia-Romagna"
"108",119,"SINECO SPA","Follo, La Spezia, Liguria, Italia",9.8328642,44.1728311,"Follo, La Spezia, Liguria, Italia",0.93001,"NULL","NULL","NULL","Italia","it","openstreetmap","SP","61.079.023","60.268.056","362.590","401.330","0,59","0,67","3,65","3,61,",7,"La Spezia","Liguria"
"109",105,"C.A.B.  CONSORZIO AUTOTRASP.","Noale, Venezia, Veneto, Italia",12.0720437,45.550156,"Noale, Venezia, Veneto, 30033, Italia",0.910343444135026,"NULL","NULL","30033","Italia","it","openstreetmap","VE","60.834.218","67.160.529","32.019","1.919","0,05","0,00","5,88","0,38,",5,"Venezia","Veneto"
"110",118,"ROBERTO BUCCI SPA","Napoli, Napoli, Campania, Italia",14.2487679,40.8358846,"Napoli, Campania, Italia",1.14935065441882,"NULL","NULL","NULL","Italia","it","openstreetmap","NA","60.596.132","60.349.968","505.162","248.403","0,83","0,41","6,21","3,40,",15,"Napoli","Campania"
"111",113,"BIANCHI & C. SRL","Casnate con Bernate, Como, Lombardia, Italia",9.07427788377327,45.76048315,"Casnate con Bernate, Como, Lombardia, Italia",1.12804257012702,"NULL","NULL","NULL","Italia","it","openstreetmap","CO","60.489.635","61.789.299","2.129.760","1.890.231","3,52","3,06","13,46","9,36,",3,"Como","Lombardia"
"112",128,"F.LLI DISSEGNA SRL","Rossano Veneto, Vicenza, Veneto, Italia",11.7997866,45.7052727,"Rossano Veneto, Vicenza, Veneto, 36028, Italia",1.04889051520141,"NULL","NULL","36028","Italia","it","openstreetmap","VI","60.152.127","56.728.177","-121.570","250.256","-0,20","0,44","-2,45","4,91,",5,"Vicenza","Veneto"
"113",94,"SVAT GROUP","Nogarole Rocca, Verona, Veneto, Italia",10.883788,45.291882,"Nogarole Rocca, Verona, Veneto, Italia",1.02844173278265,"NULL","NULL","NULL","Italia","it","openstreetmap","VR","60.005.225","73.157.471","1.818.524","2.525.294","3,03","3,45",NA,"N.D.,",5,"Verona","Veneto"
"114",138,"TRANS ISOLE - SRL","Angri, Salerno, Campania, Italia",14.5722829,40.7376592,"Angri, Salerno, Campania, 84012, Italia",0.947401424716003,"NULL","NULL","84012","Italia","it","openstreetmap","SA","59.536.538","53.249.601","5.126.135","2.693.211","8,61","5,06","16,52","13,80,",15,"Salerno","Campania"
"115",153,"LCT SPA","Catania, Catania, Sicilia, Italia",15.0873718,37.5023612,"Catania, Sicilia, 95121, Italia",1.05212263789884,"NULL","NULL","95121","Italia","it","openstreetmap","CT","59.044.983","48.471.000","3.368.746","1.698.140","5,71","3,50","31,37","36,61,",19,"Catania","Sicilia"
"116",85,"NAVIGAZIONE MONTANARI SPA","Trieste, Trieste, Friuli Venezia Giulia, Italia",13.7772781,45.6496485,"Trieste, Friuli-Venezia Giulia, 34121-34151, Italia",1.27101328177223,"NULL","NULL","34121-34151","Italia","it","openstreetmap","TS","58.059.705","78.591.522","3.449.689","4.589.550","5,94","5,84","5,52","7,77,",6,"Trieste","Friuli Venezia Giulia"
"117",129,"UNILOG GROUP SPA","Anzola dell'Emilia, Bologna, Emilia-Romagna, Italia",11.1933259,44.5466843,"Anzola dell'Emilia, Unione Terre d'Acqua, Bologna, Emilia-Romagna, 40011, Italia",1.19845362965453,"NULL","NULL","40011","Italia","it","openstreetmap","BO","57.733.910","56.682.715","259.428","-1.158.050","0,45","-2,04","12,94","-66,37,",8,"Bologna","Emilia-Romagna"
"118",136,"UBV GROUP","Fino Mornasco, Como, Lombardia, Italia",9.047639,45.742876,"Fino Mornasco, Como, Lombardia, Italia",1.02874413093298,"NULL","NULL","NULL","Italia","it","openstreetmap","CO","57.716.339","53.412.317","312.025","887.800","0,54","1,66","6,58","17,91,",3,"Como","Lombardia"
"119",114,"GERMANETTI SRL","Alba, Cuneo, Piemonte, Italia",8.0357786,44.7007236,"Alba, Cuneo, Piemonte, Italia",0.996171437184147,"NULL","NULL","NULL","Italia","it","openstreetmap","CN","57.605.455","61.673.598","979.843","1.217.405","1,70","1,97","7,79","14,60,",1,"Cuneo","Piemonte"
"120",NA,"GRENDI LOGISTICA (CONSOL.)","Genova, Genova, Liguria, Italia",8.9338624,44.40726,"Genova, Liguria, Italia",1.12217796659308,"NULL","NULL","NULL","Italia","it","openstreetmap","GE","57.576.159","51.626.325","2.874.403","3.112.887","4,99","6,03","16,47","26,49,",7,"Genova","Liguria"
"121",124,"PIGLIACELLI AUTOTRASPORTI","Frosinone, Frosinone, Lazio, Italia",13.3469287,41.6419807,"Frosinone, Lazio, 03100, Italia",0.968642482901018,"NULL","NULL","03100","Italia","it","openstreetmap","FR","57.185.053","57.669.323","3.341.111","2.843.690","5,84","4,93","13,32","13,08,",12,"Frosinone","Lazio"
"122",116,"TRANS FERRY SPA","Fiorenzuola d'Arda, Piacenza, Emilia-Romagna, Italia",9.9107218,44.9280841,"Fiorenzuola d'Arda, Piacenza, Emilia-Romagna, 29017, Italia",1.20519829985071,"NULL","NULL","29017","Italia","it","openstreetmap","PC","57.077.670","61.292.820","3.902.114","3.540.316","6,84","5,78","13,23","13,84,",8,"Piacenza","Emilia-Romagna"
"123",144,"ADRILOG SOC. COOP.","San Salvo, Chieti, Abruzzo, Italia",14.7272302,42.0433265,"San Salvo, Chieti, Abruzzo, Italia",1.02531330197337,"NULL","NULL","NULL","Italia","it","openstreetmap","CH","57.057.181","50.716.184","223.465","72.878","0,39","0,14","5,33","2,23,",13,"Chieti","Abruzzo"
"124",123,"LOGISTICA NIEDDU SRL","Roma, Roma, Lazio, Italia",12.4829321,41.8933203,"Roma, Roma Capitale, Lazio, Italia",1.22961071806895,"NULL","NULL","NULL","Italia","it","openstreetmap","RM","56.702.893","57.928.404","1.774.659","1.269.299","3,13","2,19","9,76","14,21,",12,"Roma","Lazio"
"125",91,"ISS PALUMBO","Livorno, Livorno, Toscana, Italia",10.3091256,43.5507317,"Livorno, Toscana, Italia",1.04561736625449,"NULL","NULL","NULL","Italia","it","openstreetmap","LI","56.635.101","74.211.186","360.432","3.140.793","0,64","4,23","1,13","9,34,",9,"Livorno","Toscana"
"126",115,"ALISPED SPA","Prato, Prato, Toscana, Italia",11.0969262,43.880598,"Prato, Toscana, 59100, Italia",0.990668145899851,"NULL","NULL","59100","Italia","it","openstreetmap","PO","55.848.136","61.523.981","-978.305","63.789","-1,75","0,10","-41,63","1,92,",9,"Prato","Toscana"
"127",NA,"STEF FROZEN SRL","Parma, Parma, Emilia-Romagna, Italia",10.3280833,44.8013678,"Parma, Emilia-Romagna, Italia",1.15557342401684,"NULL","NULL","NULL","Italia","it","openstreetmap","PR","55.783.000","52.885.000","-2.138.000","-2.694.000","-3,83","-5,09",NA,"N.D.,",8,"Parma","Emilia-Romagna"
"128",99,"HANNIBAL SPA","Melzo, Milano, Lombardia, Italia",9.4242513,45.4985848,"Melzo, Milano, Lombardia, 20066, Italia",0.947646679314894,"NULL","NULL","20066","Italia","it","openstreetmap","MI","55.593.278","70.279.654","-1.038.569","590.872","-1,87","0,84","-73,23","19,57,",3,"Milano","Lombardia"
"129",125,"CHIAPPAROLI LOGISTICA SPA","San Giuliano Milanese, Milano, Lombardia, Italia",9.291851,45.39427,"San Giuliano Milanese, Milano, Lombardia, 20098, Italia",1.13497891531428,"NULL","NULL","20098","Italia","it","openstreetmap","MI","54.482.434","57.539.129","2.037.033","1.649.161","3,74","2,87","31,91","38,00,",3,"Milano","Lombardia"
"130",148,"KATOEN NATIE ITALIA (GRUPPO)","Cremona, Cremona, Lombardia, Italia",10.0248716,45.1334796,"Cremona, Lombardia, 26100, Italia",1.0313580812413,"NULL","NULL","26100","Italia","it","openstreetmap","CR","54.183.371","49.866.500","6.744.408","1.065.998","12,45","2,14",NA,"N.D.,",3,"Cremona","Lombardia"
"131",139,"CAMPAGNOLO TRASPORTI SRL","Tezze Sul Brenta, Vicenza, Veneto, Italia",11.7041837,45.6861778,"Tezze sul Brenta, Vicenza, Veneto, 36056, Italia",0.960429299909574,"NULL","NULL","36056","Italia","it","openstreetmap","VI","53.372.527","52.937.519","2.513.816","1.137.959","4,71","2,15","14,91","9,13,",5,"Vicenza","Veneto"
"132",224,"FRATELLI COSULICH SPA","Genova, Genova, Liguria, Italia",8.9338624,44.40726,"Genova, Liguria, Italia",1.12217796659308,"NULL","NULL","NULL","Italia","it","openstreetmap","GE","53.270.909","32.090.737","1.698.580","773.966","3,19","2,41","8,44","3,81,",7,"Genova","Liguria"
"133",130,"AGENZIA MARITTIMA LE NAVI SPA","Genova, Genova, Liguria, Italia",8.9338624,44.40726,"Genova, Liguria, Italia",1.12217796659308,"NULL","NULL","NULL","Italia","it","openstreetmap","GE","52.800.581","55.586.108","7.030.939","7.599.515","13,32","13,67","12,18","14,98,",7,"Genova","Liguria"
"134",176,"TRANSBOZEN LOGISTIK","Laion, Bolzano, Trentino-Alto Adige, Italia",11.564263,46.6092289,"Lajen - Laion, Eisacktal - Valle Isarco, Bolzano - Bozen, Trentino-Alto Adige/Südtirol, Italia",1.03985386965926,"NULL","NULL","NULL","Italia","it","openstreetmap","BZ","51.995.373","42.410.040","4.278.202","2.857.695","8,23","6,74","23,04","19,20,",4,"Bolzano","Trentino-Alto Adige"
"135",93,"I-FAST AUTOMOTIVE LOGISTICS","Torino, Torino, Piemonte, Italia",7.6824892,45.0677551,"Torino, Piemonte, Italia",1.14680623875777,"NULL","NULL","NULL","Italia","it","openstreetmap","TO","51.819.595","73.438.059","2.179.942","3.452.183","4,21","4,70","8,69","15,08,",1,"Torino","Piemonte"
"136",157,"CST LOGISTICA & TRASPORTI SRL","Scorze', Venezia, Veneto, Italia",12.108383,45.5713541,"Scorzè, Venezia, Veneto, Italia",0.78895090679248,"NULL","NULL","NULL","Italia","it","openstreetmap","VE","51.572.834","47.926.910","2.531.250","1.793.451","4,91","3,74","16,82","14,28",5,"Venezia","Veneto"
"NA",132,"CARGO COMPASS SPA","Cormano, Milano, Lombardia, Italia",9.16762072996116,45.54451325,"Cormano, Zona Omogenea Milano Nord, Milano, Lombardia, 20032, Italia",0.944310760452101,"NULL","NULL","20032","Italia","it","openstreetmap","MI","51.445.083","54.827.312","-337.329","149.128","-0,66","0,27","-31,32","10,55",3,"Milano","Lombardia"
"138",173,"VECTOR SPA","Castellanza, Varese, Lombardia, Italia",8.8970383,45.6123744,"Castellanza, Varese, Lombardia, 21053, Italia",0.941689207139783,"NULL","NULL","21053","Italia","it","openstreetmap","VA","51.241.336","43.569.379","668.950","239.465","1,31","0,55","26,27","11,22",3,"Varese","Lombardia"
"139",126,"BURLOTTI SPEDIZIONI SPA","Darfo Boario Terme, Brescia, Lombardia, Italia",10.1807068,45.8834863,"Darfo Boario Terme, Comunità montana della valle Camonica, Brescia, Lombardia, Italia",1.15857280239685,"NULL","NULL","NULL","Italia","it","openstreetmap","BS","50.608.151","56.939.327","545.814","118.287","1,08","0,21","10,70","2,60",3,"Brescia","Lombardia"
"140",156,"LAZIALE DISTRIBUZIONE-LDI","Santa Palomba, Roma, Lazio, Italia",12.5769364,41.7063363,"Santa Palomba, Pomezia, Roma Capitale, Lazio, 00040, Italia",0.79501,"NULL","NULL","00040","Italia","it","openstreetmap","RM","50.380.972","48.240.411","1.271.160","970.306","2,52","2,01","2,89","2,81",12,"Roma","Lazio"
"141",159,"ALBERTI GERMANO & SANTI R.NO","Cortemaggiore, Piacenza, Emilia-Romagna, Italia",9.9310724,44.9963532,"Cortemaggiore, Piacenza, Emilia-Romagna, 29016, Italia",1.00105665247223,"NULL","NULL","29016","Italia","it","openstreetmap","PC","50.254.705","47.663.570","315.766","21.993","0,63","0,05","15,16","2,57",8,"Piacenza","Emilia-Romagna"
"142",151,"T&TI CARGO LINE SRL","San Giuliano Milanese, Milano, Lombardia, Italia",9.291851,45.39427,"San Giuliano Milanese, Milano, Lombardia, 20098, Italia",1.13497891531428,"NULL","NULL","20098","Italia","it","openstreetmap","MI","49.730.245","49.022.809","3.584.000","3.037.000","7,21","6,20",NA,NA,3,"Milano","Lombardia"
"143",142,"MALPENSA LOGISTICA EUROPEA","Malpensa Cargo City, Italia",8.71859407635851,45.61417455,"Milano Malpensa Cargo, Cargo City Sud, Lonate Pozzolo, Unione dei comuni di Lonate Pozzolo e Ferno, Varese, Lombardia, 21015, Italia",0.41001,"NULL","NULL","21015","Italia","it","openstreetmap","MI","49.664.142","51.489.719","5.046.827","4.631.033","10,16","8,99","29,79","32,17",3,"Milano","Lombardia"
"144",137,"G.M.T. GENOA METAL TERM. SRL","Genova, Genova, Liguria, Italia",8.9338624,44.40726,"Genova, Liguria, Italia",1.12217796659308,"NULL","NULL","NULL","Italia","it","openstreetmap","GE","49.535.556","53.257.682","1.824.874","4.807.664","3,68","9,03","6,52","20,67",7,"Genova","Liguria"
"145",155,"AUTOSPED G - SPA","Castelnuovo Scrivia, Alessandria, Piemonte, Italia",8.8803561,44.9802488,"Castelnuovo Scrivia, Alessandria, Piemonte, 15053, Italia",1.06058472107855,"NULL","NULL","15053","Italia","it","openstreetmap","AL","49.196.778","48.299.595","3.368.279","3.786.770","6,85","7,84","4,51","5,31",1,"Alessandria","Piemonte"
"146",154,"SAILPOST (CONSOL.)","Vecchiano, Pisa, Toscana, Italia",10.384403,43.783342,"Vecchiano, Pisa, Toscana, 56019, Italia",0.867143021264043,"NULL","NULL","56019","Italia","it","openstreetmap","PI","48.345.059","48.431.928","377.542","917.907","0,78","1,90","6,71","16,51",9,"Pisa","Toscana"
"147",135,"CUTI CONSAI SOC. COOPERATIVA","Imola, Bologna, Emilia-Romagna, Italia",11.7141233,44.3535145,"Imola, Nuovo Circondario Imolese, Bologna, Emilia-Romagna, 40026, Italia",1.08753734871637,"NULL","NULL","40026","Italia","it","openstreetmap","BO","47.810.064","53.447.081","263.000","344.304","0,55","0,64","3,80","5,44",8,"Bologna","Emilia-Romagna"
"148",152,"CONTAINERS FIDENZA CONSORZIO","Piacenza, Piacenza, Emilia-Romagna, Italia",9.6947461,45.0534751,"Piacenza, Emilia-Romagna, Italia",1.11823428000043,"NULL","NULL","NULL","Italia","it","openstreetmap","PC","46.864.085","48.877.396",NA,NA,NA,NA,NA,NA,8,"Piacenza","Emilia-Romagna"
"149",133,"GRUPPO FINESSO","Padova, Padova, Veneto, Italia",11.8734455,45.4077172,"Padova, Veneto, Italia",1.08355630139298,"NULL","NULL","NULL","Italia","it","openstreetmap","PD","46.772.305","54.108.588","-160.822","672.575","-0,34","1,24",NA,NA,5,"Padova","Veneto"
"150",229,"A.BA.CO. SRL","San Giuseppe Vesuviano, Napoli, Campania, Italia",14.504436,40.829811,"San Giuseppe Vesuviano, Napoli, Campania, Italia",1.10234314395011,"NULL","NULL","NULL","Italia","it","openstreetmap","NA","46.659.981","31.551.613","1.046.149","131.143","2,24","0,42","11,47","1,62",15,"Napoli","Campania"
"151",160,"CONSERVA SPA","Bitonto, Bari, Puglia, Italia",16.691548,41.1084971,"Bitonto, Bari, Puglia, 70032, Italia",0.922066632905469,"NULL","NULL","70032","Italia","it","openstreetmap","BA","46.623.652","47.540.862","2.865.000","1.435.000","6,14","3,02",NA,NA,16,"Bari","Puglia"
"152",149,"PE.TRA SRL","Brembate, Bergamo, Lombardia, Italia",9.5555981,45.6039279,"Brembate, Bergamo, Lombardia, 24041, Italia",0.969220110365925,"NULL","NULL","24041","Italia","it","openstreetmap","BG","46.412.894","49.325.586","494.477","2.186.161","1,07","4,43","9,44","45,85",3,"Bergamo","Lombardia"
"153",168,"GALI GROUP SRL","Ispica, Ragusa, Sicilia, Italia",14.907637,36.7858319,"Ispica, Ragusa, Sicilia, 97014, Italia",0.856803245819309,"NULL","NULL","97014","Italia","it","openstreetmap","RG","45.179.696","44.528.907","2.161.119","379.453","4,78","0,85","18,09","6,03",19,"Ragusa","Sicilia"
"154",143,"ITALIANSPED SPA","Imola, Bologna, Emilia-Romagna, Italia",11.7141233,44.3535145,"Imola, Nuovo Circondario Imolese, Bologna, Emilia-Romagna, 40026, Italia",1.08753734871637,"NULL","NULL","40026","Italia","it","openstreetmap","BO","45.003.998","50.782.070","214.518","130.513","0,48","0,26","9,13","5,90",8,"Bologna","Emilia-Romagna"
"155",141,"KOINE' SPA","Madone, Bergamo, Lombardia, Italia",9.5479634,45.6499571,"Madone, Bergamo, Lombardia, Italia",0.968468133705903,"NULL","NULL","NULL","Italia","it","openstreetmap","BG","44.784.253","52.729.554","1.123.209","4.675.863","2,51","8,87","10,83","50,53",3,"Bergamo","Lombardia"
"156",150,"AVION COMPANY","Peschiera Borromeo, Milano, Lombardia, Italia",9.3045703113961,45.4425059,"Peschiera Borromeo, Milano, Lombardia, 20068, Italia",1.03506405471084,"NULL","NULL","20068","Italia","it","openstreetmap","MI","44.498.471","49.242.452","-903.535","2.050.974","-2,03","4,17","-29,06","63,36",3,"Milano","Lombardia"
"157",174,"EMBASSY FREIGHT SERVICES SPA","Gualtieri, Reggio nell'Emilia, Emilia-Romagna, Italia",10.6302265,44.9050126,"Gualtieri, Bassa Reggiana, Reggio nell'Emilia, Emilia-Romagna, 42044, Italia",1.18234373085466,"NULL","NULL","42044","Italia","it","openstreetmap","RE","44.026.948","43.074.474","-593.238","-117.854","-1,35","-0,27","-26,89","-4,21",8,"Reggio nell'Emilia","Emilia-Romagna"
"158",164,"MITSAFETRANS SRL","Carugate, Milano, Lombardia, Italia",9.343749,45.549774,"Carugate, Milano, Lombardia, 20061, Italia",0.94354814510562,"NULL","NULL","20061","Italia","it","openstreetmap","MI","43.052.198","46.521.202","4.476.968","3.302.083","10,40","7,10","13,84","11,85",3,"Milano","Lombardia"
"159",165,"DE GEORGIO TRASPORTI SRL","Marcianise, Caserta, Campania, Italia",14.2984228,41.0329966,"Marcianise, Caserta, Campania, 81025, Italia",0.934227417582107,"NULL","NULL","81025","Italia","it","openstreetmap","CE","42.523.274","46.117.324","161.021","1.021.273","0,38","2,21","3,48","22,87",15,"Caserta","Campania"
"160",182,"TUVIA ITALIA  (GRP KERRY)","Milano, Milano, Lombardia, Italia",9.1896346,45.4641943,"Milano, Lombardia, Italia",1.17906520787013,"NULL","NULL","NULL","Italia","it","openstreetmap","MI","42.303.776","40.002.266","-201.081","-130.703","-0,48","-0,33","-5,09","-3,15",3,"Milano","Lombardia"
"161",134,"KERRY PROJECT LOGISTICS","Milano, Milano, Lombardia, Italia",9.1896346,45.4641943,"Milano, Lombardia, Italia",1.17906520787013,"NULL","NULL","NULL","Italia","it","openstreetmap","MI","42.195.223","53.960.405","88.226","714.761","0,21","1,32","0,64","5,21",3,"Milano","Lombardia"
"162",158,"ASTER COOP LOGISTICA","Udine, Udine, Friuli Venezia Giulia, Italia",13.2358377,46.0634632,"Udine, Friuli-Venezia Giulia, 33100, Italia",1.22967755572484,"NULL","NULL","33100","Italia","it","openstreetmap","UD","41.971.024","47.906.116","8.035","12.833","0,02","0,03","0,17","0,47",6,"Udine","Friuli Venezia Giulia"
"163",171,"CASASCO & NARDI SPA","Genova, Genova, Liguria, Italia",8.9338624,44.40726,"Genova, Liguria, Italia",1.12217796659308,"NULL","NULL","NULL","Italia","it","openstreetmap","GE","41.717.302","43.806.426","245.835","431.639","0,59","0,99","11,35","20,37",7,"Genova","Liguria"
"164",189,"SO.GE.DI.M. SRL","Inveruno, Italia",8.8519543,45.5138305,"Inveruno, Milano, Lombardia, 20001, Italia",0.722722973181014,"NULL","NULL","20001","Italia","it","openstreetmap","MI","41.337.748","38.114.695","2.375.276","1.988.032","5,75","5,22","12,45","27,34",3,"Milano","Lombardia"
"165",161,"SBB CARGO ITALIA","Gallarate, Varese, Lombardia, Italia",8.7932013,45.6598951,"Gallarate, Varese, Lombardia, 21013, Italia",0.964352967647625,"NULL","NULL","21013","Italia","it","openstreetmap","VA","41.149.454","47.354.915","310.591","1.457.437","0,75","3,08","1,61","7,68",3,"Varese","Lombardia"
"166",325,"LOGITECH SRL","Rosate, Milano, Lombardia, Italia",9.0174784,45.3519922,"Rosate, Unione dei Comuni I Fontanili, Milano, Lombardia, 20088, Italia",0.942279508903582,"NULL","NULL","20088","Italia","it","openstreetmap","MI","40.219.938","23.155.108","232.605","236.456","0,58","1,02",NA,NA,3,"Milano","Lombardia"
"167",131,"FERRARI SPA","Alessandria, Alessandria, Piemonte, Italia",8.6153899,44.9129069,"Alessandria, Piemonte, Italia",1.02377808750911,"NULL","NULL","NULL","Italia","it","openstreetmap","AL","40.139.446","54.999.568","1.096.962","2.098.210","2,73","3,81","6,59","12,45",1,"Alessandria","Piemonte"
"168",178,"CTA COOP. TRASP. ALIMENTARI","Anzola dell'Emilia, Bologna, Emilia-Romagna, Italia",11.1933259,44.5466843,"Anzola dell'Emilia, Unione Terre d'Acqua, Bologna, Emilia-Romagna, 40011, Italia",1.19845362965453,"NULL","NULL","40011","Italia","it","openstreetmap","BO","40.050.500","41.737.612","588.108","113.436","1,47","0,27","15,38","3,49",8,"Bologna","Emilia-Romagna"
"169",172,"DEUGRO ITALIA SRL","Milano, Milano, Lombardia, Italia",9.1896346,45.4641943,"Milano, Lombardia, Italia",1.17906520787013,"NULL","NULL","NULL","Italia","it","openstreetmap","MI","39.975.850","43.729.489","1.470.264","1.531.048","3,68","3,50","33,58","34,74",3,"Milano","Lombardia"
"170",169,"INTERGROUP","Gaeta, Latina, Lazio, Italia",13.56281,41.218312,"Gaeta, Latina, Lazio, 04024, Italia",0.963966008527258,"NULL","NULL","04024","Italia","it","openstreetmap","LT","39.931.738","44.500.000",NA,NA,NA,NA,NA,NA,12,"Latina","Lazio"
"171",219,"ISL NARDI SRL","Milano, Milano, Lombardia, Italia",9.1896346,45.4641943,"Milano, Lombardia, Italia",1.17906520787013,"NULL","NULL","NULL","Italia","it","openstreetmap","MI","39.774.520","32.508.100","146.220","77.467","0,37","0,24","2,26","1,23",3,"Milano","Lombardia"
"172",197,"MAREXPORT GLOBAL FORW.","Genova, Genova, Liguria, Italia",8.9338624,44.40726,"Genova, Liguria, Italia",1.12217796659308,"NULL","NULL","NULL","Italia","it","openstreetmap","GE","39.733.537","36.461.102","359.742","164.369","0,91","0,45","12,20","6,35",7,"Genova","Liguria"
"173",122,"LOGITEC SOC. CONSORT. ARL","Torino, Torino, Piemonte, Italia",7.6824892,45.0677551,"Torino, Piemonte, Italia",1.14680623875777,"NULL","NULL","NULL","Italia","it","openstreetmap","TO","39.543.141","58.092.844","-3.995.650","82.057","-10,10","0,14",NA,"18,22",1,"Torino","Piemonte"
"174",205,"CN LOGISTICS SRL","Origgio, Varese, Lombardia, Italia",9.0180613,45.5976933,"Origgio, Varese, Lombardia, 21040, Italia",0.932353071516346,"NULL","NULL","21040","Italia","it","openstreetmap","VA","39.306.468","34.788.424","2.033.341","1.340.026","5,17","3,85","41,94","43,36",3,"Varese","Lombardia"
"175",147,"AUTOTRADE & LOGISTICS SPA","Collesalvetti, Livorno, Toscana, Italia",10.476264,43.588912,"Collesalvetti, Livorno, Toscana, Italia",0.859042126246238,"NULL","NULL","NULL","Italia","it","openstreetmap","LI","39.263.012","50.094.146","-610.387","387.016","-1,55","0,77","-7,54","4,44",9,"Livorno","Toscana"
"176",257,"ORMESANI SRL","Venezia, Venezia, Veneto, Italia",12.3345898,45.4371908,"Venezia, Veneto, Italia",1.15101948988273,"NULL","NULL","NULL","Italia","it","openstreetmap","VE","38.998.560","28.809.612","633.338","130.877","1,62","0,45","8,83","5,10",5,"Venezia","Veneto"
"177",140,"BERTANI REMO SRL","Parma, Parma, Emilia-Romagna, Italia",10.3280833,44.8013678,"Parma, Emilia-Romagna, Italia",1.15557342401684,"NULL","NULL","NULL","Italia","it","openstreetmap","PR","38.879.912","52.816.347","1.025.741","3.480.317","2,64","6,59","4,58","16,99",8,"Parma","Emilia-Romagna"
"178",264,"PLURIMA SPA","Corciano, Perugia, Umbria, Italia",12.287718,43.1290269,"Corciano, Perugia, Umbria, 06073, Italia",0.929725473759381,"NULL","NULL","06073","Italia","it","openstreetmap","PG","38.592.289","27.820.088","2.219.277","675.719","5,75","2,43","18,34","6,92",10,"Perugia","Umbria"
"179",181,"MOVIMODA SPA","San Polo d’Enza, Reggio nell'Emilia, Emilia-Romagna, Italia",10.4222874,44.6258624,"San Polo d'Enza, Val d’Enza, Reggio nell'Emilia, Emilia-Romagna, Italia",1.57148699757969,"NULL","NULL","NULL","Italia","it","openstreetmap","RE","38.442.764","40.907.831","-1.320.268","220.087","-3,43","0,54","-103,17","8,43",8,"Reggio nell'Emilia","Emilia-Romagna"
"180",177,"ALIBERTI SPA","Montoro, Avellino, Campania, Italia",14.7917765,40.8328763,"Montoro, Avellino, Campania, 83025, Italia",0.874032993844314,"NULL","NULL","83025","Italia","it","openstreetmap","AV","37.906.132","41.953.268","-2.803.150","125.353","-7,39","0,30","-28,01","1,31",15,"Avellino","Campania"
"181",175,"SETTENTRIONALE TRASPORTI","Possagno, Treviso, Veneto, Italia",11.8815695,45.854879,"Possagno, Treviso, Veneto, 31054, Italia",0.907279572790411,"NULL","NULL","31054","Italia","it","openstreetmap","TV","37.554.973","43.029.197","1.275.374","2.032.327","3,40","4,72","6,05","10,28",5,"Treviso","Veneto"
"182",190,"LIVERANI GROUP SPA","Faenza, Ravenna, Emilia-Romagna, Italia",11.8832055,44.2855555,"Faenza, Unione della Romagna Faentina, Ravenna, Emilia-Romagna, 48018, Italia",1.06466422482117,"NULL","NULL","48018","Italia","it","openstreetmap","RA","37.216.016","38.071.790","168.387","159.021","0,45","0,42","1,70","1,64",8,"Ravenna","Emilia-Romagna"
"183",204,"CECCARELLI GROUP","Udine, Udine, Friuli Venezia Giulia, Italia",13.2358377,46.0634632,"Udine, Friuli-Venezia Giulia, 33100, Italia",1.22967755572484,"NULL","NULL","33100","Italia","it","openstreetmap","UD","37.181.840","34.879.016","414.000",NA,"1,11",NA,NA,NA,6,"Udine","Friuli Venezia Giulia"
"184",199,"CHEMICAL EXPRESS SRL","Napoli, Napoli, Campania, Italia",14.2487679,40.8358846,"Napoli, Campania, Italia",1.14935065441882,"NULL","NULL","NULL","Italia","it","openstreetmap","NA","37.157.398","36.141.109","1.684.032","1.121.585","4,53","3,10","9,56","13,19",15,"Napoli","Campania"
"185",163,"TERMINAL DARSENA TOSCANA","Livorno, Livorno, Toscana, Italia",10.3091256,43.5507317,"Livorno, Toscana, Italia",1.04561736625449,"NULL","NULL","NULL","Italia","it","openstreetmap","LI","37.059.941","46.538.351","-867.029","3.314.679","-2,34","7,12","-6,62","23,75",9,"Livorno","Toscana"
"186",162,"MULTILOG SPA","Rivalta, Italia",7.9171175,45.067604,"Rivalta, Moncucco Torinese, Asti, Piemonte, 14024, Italia",0.623405604298285,"NULL","NULL","14024","Italia","it","openstreetmap","TO","37.014.605","47.240.292","608.451","57.325","1,64","0,12","19,28","2,25",1,"Torino","Piemonte"
"187",179,"C.A.F. COOP. AUT. FALCONARA","Falconara Marittima, Ancona, Marche, Italia",13.3966763,43.6293969,"Falconara Marittima, Ancona, Marche, 60015, Italia",0.992241549456224,"NULL","NULL","60015","Italia","it","openstreetmap","AN","36.966.792","41.715.061","-76.195","236","-0,21","0,00","-5,81","0,03",11,"Ancona","Marche"
"188",214,"BETA TRANS SPA","Segrate, Milano, Lombardia, Italia",9.2948204,45.4907352,"Segrate, Milano, Lombardia, 20054, Italia",0.945606179366181,"NULL","NULL","20054","Italia","it","openstreetmap","MI","36.822.441","33.741.658","1.984.814","-2.668.712","5,39","-7,91","30,68","-1897,00",3,"Milano","Lombardia"
"189",180,"PAGANELLA SPA","Mantova, Mantova, Lombardia, Italia",10.7917191,45.1566683,"Mantova, Lombardia, 46100, Italia",1.05692969157228,"NULL","NULL","46100","Italia","it","openstreetmap","MN","36.742.315","41.676.303","2.616.052","2.440.323","7,12","5,86","8,57","9,31",3,"Mantova","Lombardia"
"190",187,"COOPERATIVA PARATORI GENOVA","Genova, Genova, Liguria, Italia",8.9338624,44.40726,"Genova, Liguria, Italia",1.12217796659308,"NULL","NULL","NULL","Italia","it","openstreetmap","GE","36.614.356","38.214.783","2.702","9.991","0,01","0,03","0,10","0,37",7,"Genova","Liguria"
"191",185,"INTER-RAIL SPA","Udine, Udine, Friuli Venezia Giulia, Italia",13.2358377,46.0634632,"Udine, Friuli-Venezia Giulia, 33100, Italia",1.22967755572484,"NULL","NULL","33100","Italia","it","openstreetmap","UD","36.494.859","38.767.761","750.568","1.032.595","2,06","2,66","11,06","16,05",6,"Udine","Friuli Venezia Giulia"
"192",211,"MAR LOG CONSORZIO","Favaro Veneto, Venezia, Veneto, Italia",12.2820457,45.5046266,"Favaro Veneto, Venezia, Veneto, 30173, Italia",0.859365753233371,"NULL","NULL","30173","Italia","it","openstreetmap","VE","36.400.251","34.127.678","31.997","-68.591","0,09","-0,20","10,58","-25,36",5,"Venezia","Veneto"
"193",184,"VECTORYS ITALIA SRL","Novi Ligure, Alessandria, Piemonte, Italia",8.789551,44.76085,"Novi Ligure, Alessandria, Piemonte, 15067, Italia",1.07484832508614,"NULL","NULL","15067","Italia","it","openstreetmap","AL","36.242.290","39.233.351","1.402.943","576.940","3,87","1,47","20,56","27,28",1,"Alessandria","Piemonte"
"194",207,"DACHSER FOOD LOGISTICS SRL","Nogarole Rocca, Verona, Veneto, Italia",10.883788,45.291882,"Nogarole Rocca, Verona, Veneto, Italia",1.02844173278265,"NULL","NULL","NULL","Italia","it","openstreetmap","VR","35.929.008","34.735.531","-2.220.000","-2.428.777","-6,18","-6,99",NA,NA,5,"Verona","Veneto"
"195",167,"FLEXILOG SERVIZI LOGISTICI","Milano, Milano, Lombardia, Italia",9.1896346,45.4641943,"Milano, Lombardia, Italia",1.17906520787013,"NULL","NULL","NULL","Italia","it","openstreetmap","MI","35.032.355","45.465.981","209.182","-897.406","0,60","-1,97","24,16","-136,65",3,"Milano","Lombardia"
"196",208,"LOGISTICA 2 SRL","Trento, Trento, Trentino-Alto Adige, Italia",11.1297424941688,46.1029536,"Provincia di Trento, Trentino-Alto Adige/Südtirol, Italia",1.24800753903992,"NULL","NULL","NULL","Italia","it","openstreetmap","TN","35.025.805","34.683.010","1.034.501","652.704","2,95","1,88","45,82","53,35",4,"Trento","Trentino-Alto Adige"
"197",221,"INTERPORTO PADOVA SPA","Padova, Padova, Veneto, Italia",11.8734455,45.4077172,"Padova, Veneto, Italia",1.08355630139298,"NULL","NULL","NULL","Italia","it","openstreetmap","PD","34.976.470","32.217.439","2.301.624","1.088.310","6,58","3,38","1,91","1,97",5,"Padova","Veneto"
"198",202,"BDP ITALIA SRL","Segrate, Milano, Lombardia, Italia",9.2948204,45.4907352,"Segrate, Milano, Lombardia, 20054, Italia",0.945606179366181,"NULL","NULL","20054","Italia","it","openstreetmap","MI","34.974.479","35.007.256","1.156.104","842.715","3,31","2,41","43,49","56,10",3,"Milano","Lombardia"
"199",210,"CAREDIO GROUP SRL","Montaldo Scarampi, Asti, Piemonte, Italia",8.2590523,44.830345,"Montaldo Scarampi, Asti, Piemonte, Italia",1.03152722965004,"NULL","NULL","NULL","Italia","it","openstreetmap","AT","34.972.229","34.220.764","2.206.414","1.112.463","6,31","3,25","17,89","12,09",1,"Asti","Piemonte"
"200",223,"HELLMANN LOGISTICS SPA","Segrate, Milano, Lombardia, Italia",9.2948204,45.4907352,"Segrate, Milano, Lombardia, 20054, Italia",0.945606179366181,"NULL","NULL","20054","Italia","it","openstreetmap","MI","34.800.686","32.137.042","-88.592","265.164","-0,25","0,83","-1,40","4,12",3,"Milano","Lombardia"
"201",183,"GALARDI SRL","Prato, Prato, Toscana, Italia",11.0969262,43.880598,"Prato, Toscana, 59100, Italia",0.990668145899851,"NULL","NULL","59100","Italia","it","openstreetmap","PO","34.705.418","39.847.020","440.972","538.085","1,27","1,35","12,87","18,02",9,"Prato","Toscana"
"202",238,"COSCOS SRL","Genova, Genova, Liguria, Italia",8.9338624,44.40726,"Genova, Liguria, Italia",1.12217796659308,"NULL","NULL","NULL","Italia","it","openstreetmap","GE","34.388.040","30.345.215","2.084.948","1.526.187","6,06","5,03","62,05","54,99",7,"Genova","Liguria"
"203",100,"ARCELOR LOGISTICS ITALIA SRL","Milano, Milano, Lombardia, Italia",9.1896346,45.4641943,"Milano, Lombardia, Italia",1.17906520787013,"NULL","NULL","NULL","Italia","it","openstreetmap","MI","34.002.752","70.260.473","100.925","265.149","0,30","0,38","7,13","20,17",3,"Milano","Lombardia"
"NA",192,"CHIMAR SPA","Limidi di  Soliera, Modena, Emilia-Romagna, Italia",10.9246215,44.7618228,"Limidi di Soliera, Soliera, Unione delle Terre d'Argine, Modena, Emilia-Romagna, 41019, Italia",1.00501,"NULL","NULL","41019","Italia","it","openstreetmap","MO","33.250.348","37.393.635","-523.815","182.519","-1,58","0,49","-17,59","5,20",8,"Modena","Emilia-Romagna"
"206",467,"CHRONO EXPRESS SRL","Settimo Torinese, Torino, Piemonte, Italia",7.7710152,45.1373354,"Settimo Torinese, Torino, Piemonte, 10036, Italia",1.06923769178179,"NULL","NULL","10036","Italia","it","openstreetmap","TO","33.185.372","14.425.909","1.197.007","416.660","3,61","2,89","28,58","13,93",1,"Torino","Piemonte"
"207",186,"GIANESINI ERMINIO SRL","Gorizia, Gorizia, Friuli Venezia Giulia, Italia",13.6252288,45.9441278,"Gorizia, Friuli-Venezia Giulia, 34170, Italia",1.18718043847482,"NULL","NULL","34170","Italia","it","openstreetmap","GO","33.052.685","38.238.329","400.936","397.959","1,21","1,04","39,64","32,87",6,"Gorizia","Friuli Venezia Giulia"
"208",209,"GEOS GROUP","Brescia, Brescia, Lombardia, Italia",10.2200214,45.5398022,"Brescia, Lombardia, Italia",1.0671074461208,"NULL","NULL","NULL","Italia","it","openstreetmap","BS","32.590.625","34.510.146","119.649","471.584","0,37","1,37",NA,NA,3,"Brescia","Lombardia"
"209",246,"TRASPORTI PESANTI SRL","Piadena, Cremona, Lombardia, Italia",10.3687468,45.1308551,"Piadena, Piadena Drizzona, Cremona, Lombardia, 26034, Italia",0.921070129396486,"NULL","NULL","26034","Italia","it","openstreetmap","CR","32.546.467","29.896.086","2.248.529","1.265.594","6,91","4,23","11,77","9,66",3,"Cremona","Lombardia"
"210",248,"S.A.F.I.M. MAG.FRIG. SRL","None, Torino, Piemonte, Italia",7.540121,44.933143,"None, Torino, Piemonte, Italia",0.976346345520753,"NULL","NULL","NULL","Italia","it","openstreetmap","TO","32.465.787","29.449.199","142.722","32.172","0,44","0,11","2,24","0,75",1,"Torino","Piemonte"
"211",212,"ALPETRANS","Marostica, Vicenza, Veneto, Italia",11.6568938,45.7453924,"Marostica, Vicenza, Veneto, 36063, Italia",0.95963505343254,"NULL","NULL","36063","Italia","it","openstreetmap","VI","32.417.187","33.976.993","358.295","256.260","1,11","0,75","8,52","8,29",5,"Vicenza","Veneto"
"212",343,"FEMA LOGISTICA TRASPORTI SRL","Roma, Roma, Lazio, Italia",12.4829321,41.8933203,"Roma, Roma Capitale, Lazio, Italia",1.22961071806895,"NULL","NULL","NULL","Italia","it","openstreetmap","RM","32.347.798","21.343.608","96.387","33.904","0,30","0,16","11,17","4,42",12,"Roma","Lazio"
"213",200,"BARBARINI & FOGLIA SRL","Roma, Roma, Lazio, Italia",12.4829321,41.8933203,"Roma, Roma Capitale, Lazio, Italia",1.22961071806895,"NULL","NULL","NULL","Italia","it","openstreetmap","RM","32.289.792","35.998.750","-257.992","265.837","-0,80","0,74","-3,82","3,76",12,"Roma","Lazio"
"214",256,"SEATRAM SRL","Genova, Genova, Liguria, Italia",8.9338624,44.40726,"Genova, Liguria, Italia",1.12217796659308,"NULL","NULL","NULL","Italia","it","openstreetmap","GE","32.050.231","29.073.168","1.754.553","1.517.587","5,47","5,22","20,94","20,44",7,"Genova","Liguria"
"215",198,"TRA.MA.CO. SRL","Ravenna, Ravenna, Emilia-Romagna, Italia",12.2017617,44.4161414,"Ravenna, Emilia-Romagna, Italia",1.14698231321198,"NULL","NULL","NULL","Italia","it","openstreetmap","RA","32.035.975","36.355.344","63.660","244.851","0,20","0,67","3,76","14,43",8,"Ravenna","Emilia-Romagna"
"216",213,"EUROTRASPORTI E SERVIZI SRL","Occhiobello, Rovigo, Veneto, Italia",11.5813996,44.9212498,"Occhiobello, Rovigo, Veneto, Italia",0.874140648717751,"NULL","NULL","NULL","Italia","it","openstreetmap","RO","31.695.399","33.802.408","1.046.896","736.345","3,30","2,18","19,70","17,16",5,"Rovigo","Veneto"
"217",188,"FRATELLI NERI SPA","Livorno, Livorno, Toscana, Italia",10.3091256,43.5507317,"Livorno, Toscana, Italia",1.04561736625449,"NULL","NULL","NULL","Italia","it","openstreetmap","LI","31.671.775","38.140.605","591.617","6.374.233","1,87","16,71","0,48","6,61",9,"Livorno","Toscana"
"218",270,"RIVALTA SPEDIZIONI (CONS.)","Rivalta Scrivia, Alessandria, Piemonte, Italia",8.8163942,44.8518462,"Rivalta Scrivia, Tortona, Alessandria, Piemonte, Italia",1.07933031041754,"NULL","NULL","NULL","Italia","it","openstreetmap","AL","31.582.070","27.323.813",NA,NA,NA,NA,NA,NA,1,"Alessandria","Piemonte"
"219",494,"CARGO BROKER SPA","Torino, Torino, Piemonte, Italia",7.6824892,45.0677551,"Torino, Piemonte, Italia",1.14680623875777,"NULL","NULL","NULL","Italia","it","openstreetmap","TO","31.496.400","13.300.580","421.015","104.764","1,34","0,79","57,53","33,71",1,"Torino","Piemonte"
"220",196,"T.I.E. TRASP. INTERMODALI SRL","Scandiano, Reggio nell'Emilia, Emilia-Romagna, Italia",10.6878385,44.5993449,"Scandiano, Tresinaro - Secchia, Reggio nell'Emilia, Emilia-Romagna, 42019, Italia",1.20316877154243,"NULL","NULL","42019","Italia","it","openstreetmap","RE","31.325.218","36.818.288","404.943","500.153","1,29","1,36","9,47","14,95",8,"Reggio nell'Emilia","Emilia-Romagna"
"221",191,"AUTOTRASPORTI RUTILLI ADOLFO","Castellucchio, Mantova, Lombardia, Italia",10.648485,45.147276,"Castellucchio, Mantova, Lombardia, Italia",0.892911081529788,"NULL","NULL","NULL","Italia","it","openstreetmap","MN","31.244.561","37.939.235","24.067","-258.812","0,08","-0,68","0,68","-10,34",3,"Mantova","Lombardia"
"222",263,"RIF LINE ITALY SPA","Fiumicino, Roma, Lazio, Italia",12.2278855,41.7712145,"Fiumicino, Roma Capitale, Lazio, Italia",0.948864553922038,"NULL","NULL","NULL","Italia","it","openstreetmap","RM","31.197.972","27.982.180","401.293","337.849","1,29","1,21","28,11","32,91",12,"Roma","Lazio"
"223",251,"NICOLOSI TRASPORTI SRL","Catania, Catania, Sicilia, Italia",15.0873718,37.5023612,"Catania, Sicilia, 95121, Italia",1.05212263789884,"NULL","NULL","95121","Italia","it","openstreetmap","CT","31.171.668","29.258.729","1.791.160","884.003","5,75","3,02","14,94","11,59",19,"Catania","Sicilia"
"224",234,"NICOLI SPA","Albino, Bergamo, Lombardia, Italia",9.7969489,45.760661,"Albino, Bergamo, Lombardia, 24021, Italia",0.968444849837332,"NULL","NULL","24021","Italia","it","openstreetmap","BG","31.136.673","30.580.528","-179.607","714.558","-0,58","2,34","-2,85","10,87",3,"Bergamo","Lombardia"
"225",201,"AD LOGISTICA SRL","Battipaglia, Salerno, Campania, Italia",14.9821443,40.6092539,"Battipaglia, Salerno, Campania, 84091, Italia",0.954086428356111,"NULL","NULL","84091","Italia","it","openstreetmap","SA","31.127.506","35.345.620","156.037","444.278","0,50","1,26","1,80","3,43",15,"Salerno","Campania"
"226",203,"VALSPED ITALIA SPA","Dalmine, Bergamo, Lombardia, Italia",9.6060129,45.6525039,"Dalmine, Bergamo, Lombardia, 24044, Italia",0.97186471759004,"NULL","NULL","24044","Italia","it","openstreetmap","BG","30.940.133","34.946.722","87.161","48.737","0,28","0,14","1,54","0,87",3,"Bergamo","Lombardia"
"227",222,"MATTEO ADRAGNA SRL","Carini, Palermo, Sicilia, Italia",13.1818847,38.131172,"Carini, Palermo, Sicilia, 90044, Italia",0.912285245966172,"NULL","NULL","90044","Italia","it","openstreetmap","PA","30.909.957","32.157.230","460.455","141.248","1,49","0,44","34,33","16,04",19,"Palermo","Sicilia"
"228",243,"PHARDIS SRL","Calvenzano, Bergamo, Lombardia, Italia",9.6012863,45.4949814,"Calvenzano, Bergamo, Lombardia, Italia",0.968966620985182,"NULL","NULL","NULL","Italia","it","openstreetmap","BG","30.777.070","29.996.585","122.471","69.341","0,40","0,23","3,51","3,89",3,"Bergamo","Lombardia"
"229",277,"MATELDA SRL","Rottofreno, Piacenza, Emilia-Romagna, Italia",9.547763,45.057464,"Rottofreno, Piacenza, Emilia-Romagna, Italia",0.99790465319277,"NULL","NULL","NULL","Italia","it","openstreetmap","PC","30.588.419","26.892.853","2.759.385","675.147","9,02","2,51","29,24","11,89",8,"Piacenza","Emilia-Romagna"
"230",228,"AUTOMAR - SPA","Pontecagnano Faiano, Salerno, Campania, Italia",14.8818819,40.6409045,"Pontecagnano Faiano, Salerno, Campania, Italia",1.03039966537075,"NULL","NULL","NULL","Italia","it","openstreetmap","SA","30.498.849","31.675.454","1.225.680","1.747.622","4,02","5,52","11,06","14,99",15,"Salerno","Campania"
"231",295,"HAPAG LLOYD ITALY SRL","Genova, Genova, Liguria, Italia",8.9338624,44.40726,"Genova, Liguria, Italia",1.12217796659308,"NULL","NULL","NULL","Italia","it","openstreetmap","GE","30.484.939","25.298.751","351.173","128.927","1,15","0,51","25,48","12,56",7,"Genova","Liguria"
"232",193,"I-FAST CONTAINER LOGISTICS","Torino, Torino, Piemonte, Italia",7.6824892,45.0677551,"Torino, Piemonte, Italia",1.14680623875777,"NULL","NULL","NULL","Italia","it","openstreetmap","TO","30.415.814","37.383.284","9.108.938","13.368.363","29,95","35,76","18,75","25,48",1,"Torino","Piemonte"
"233",247,"D. N LOGISTICA SRL","Catania, Catania, Sicilia, Italia",15.0873718,37.5023612,"Catania, Sicilia, 95121, Italia",1.05212263789884,"NULL","NULL","95121","Italia","it","openstreetmap","CT","30.403.874","29.564.371","3.849.734","2.286.649","12,66","7,73","19,59","24,97",19,"Catania","Sicilia"
"234",288,"COLUMBUS (GRUPPO)","Cormano, Milano, Lombardia, Italia",9.16762072996116,45.54451325,"Cormano, Zona Omogenea Milano Nord, Milano, Lombardia, 20032, Italia",0.944310760452101,"NULL","NULL","20032","Italia","it","openstreetmap","MI","30.308.000","26.000.000",NA,NA,NA,NA,NA,NA,3,"Milano","Lombardia"
"235",225,"LAGHEZZA SPA","La Spezia, La Spezia, Liguria, Italia",9.84015632789634,44.11200215,"La Spezia, Follo, La Spezia, Liguria, Italia",1.18901467816211,"NULL","NULL","NULL","Italia","it","openstreetmap","SP","30.261.229","32.010.267","700.912","582.676","2,32","1,82",NA,NA,7,"La Spezia","Liguria"
"236",170,"O.T.S. SPA","Civitanova Marche, Macerata, Marche, Italia",13.7229297,43.3055233,"Civitanova Marche, Macerata, Marche, 62012, Italia",1.01580322886746,"NULL","NULL","62012","Italia","it","openstreetmap","MC","30.235.050","44.367.481","-1.072.116","-4.421.493","-3,55","-9,97",NA,NA,11,"Macerata","Marche"
"237",282,"FAS SRL","Sambuceto, Chieti, Abruzzo, Italia",14.1869467,42.4231442,"Sambuceto, San Giovanni Teatino, Chieti, Abruzzo, 66020, Italia",0.655498150437213,"Sambuceto","NULL","66020","Italia","it","openstreetmap","CH","30.159.274","26.619.834","126.285","186.973","0,42","0,70","1,56","2,37",13,"Chieti","Abruzzo"
"238",217,"BLUE CITY SRL","Trento, Trento, Trentino-Alto Adige, Italia",11.1297424941688,46.1029536,"Provincia di Trento, Trentino-Alto Adige/Südtirol, Italia",1.24800753903992,"NULL","NULL","NULL","Italia","it","openstreetmap","TN","30.034.287","33.016.385","-3.396.039","-1.576.910","-11,31","-4,78","-27,25","-9,95",4,"Trento","Trentino-Alto Adige"
"239",231,"MAGANETTI SPEDIZIONI SPA","Tirano, Sondrio, Lombardia, Italia",10.1731777,46.2156719,"Tirano, Comunità montana della Valtellina di Tirano, Sondrio, Lombardia, 23037, Italia",0.930785702666857,"NULL","NULL","23037","Italia","it","openstreetmap","SO","29.853.046","31.483.816","-174.563","-303.349","-0,58","-0,96","-3,27","-5,49",3,"Sondrio","Lombardia"
"240",230,"YUSEN LOGISTICS ITALY SPA","Arluno, Milano, Lombardia, Italia",8.941541,45.50507,"Arluno, Milano, Lombardia, 20010, Italia",0.939809524183298,"NULL","NULL","20010","Italia","it","openstreetmap","MI","29.771.420","31.548.506","-2.393.587","-53.131","-8,04","-0,17","-1121,07","-2,04",3,"Milano","Lombardia"
"241",260,"F.LLI CANIL SPA","Loria, Treviso, Veneto, Italia",11.8655848,45.7284237,"Loria, Treviso, Veneto, 31037, Italia",0.90234373085466,"NULL","NULL","31037","Italia","it","openstreetmap","TV","29.710.126","28.447.429","943.495","594.951","3,18","2,09","14,28","10,51",5,"Treviso","Veneto"
"242",239,"VERCESI AUTOTRASPORTI SPA","Vignate, Milano, Lombardia, Italia",9.376651,45.496573,"Vignate, Milano, Lombardia, 20052, Italia",0.942634535227294,"NULL","NULL","20052","Italia","it","openstreetmap","MI","29.660.236","30.314.349","600.440","1.284.182","2,02","4,24","8,11","18,89",3,"Milano","Lombardia"
"243",244,"NORD OVEST TRASPORTI SRL","Cuneo, Cuneo, Piemonte, Italia",7.5479007,44.389633,"Cuneo, Piemonte, 12100, Italia",1.02320608897773,"NULL","NULL","12100","Italia","it","openstreetmap","CN","29.539.234","29.960.710","329.948","224.490","1,12","0,75","7,50","7,12",1,"Cuneo","Piemonte"
"244",254,"BACCETTI TRASPORTI LOGISTICA","Empoli, Firenze, Toscana, Italia",10.9458556,43.7194884,"Empoli, Firenze, Toscana, 50053, Italia",0.964873389069838,"NULL","NULL","50053","Italia","it","openstreetmap","FI","29.483.665","29.146.002","569.054","420.964","1,93","1,44","6,75","5,35",9,"Firenze","Toscana"
"245",240,"SIGEMI SRL","Milano, Milano, Lombardia, Italia",9.1896346,45.4641943,"Milano, Lombardia, Italia",1.17906520787013,"NULL","NULL","NULL","Italia","it","openstreetmap","MI","29.359.376","30.271.385","305.745","664.911","1,04","2,20","1,73","3,83",3,"Milano","Lombardia"
"246",262,"CORSI SPA","Verona, Verona, Veneto, Italia",10.9924122,45.4384958,"Verona, Veneto, Italia",1.08615738888285,"NULL","NULL","NULL","Italia","it","openstreetmap","VR","29.251.927","28.007.080","1.879.995","567.889","6,43","2,03","22,54","8,79",5,"Verona","Veneto"
"247",253,"CATONE LOGISTICA SRL","Pastorano, Caserta, Campania, Italia",14.198225,41.180816,"Pastorano, Caserta, Campania, Italia",0.925666277796707,"NULL","NULL","NULL","Italia","it","openstreetmap","CE","29.141.465","29.156.447","1.854.206","2.013.384","6,36","6,91","12,09","14,93",15,"Caserta","Campania"
"248",236,"MOVE INTERMODAL SRL","Novara, Novara, Piemonte, Italia",8.619655,45.4464036,"Novara, Piemonte, 28100, Italia",1.01818460717826,"NULL","NULL","28100","Italia","it","openstreetmap","NO","29.025.415","30.456.201","292.198","-178.183","1,01","-0,59","12,37","-8,61",1,"Novara","Piemonte"
"249",235,"STEF INTERNATIONAL  ITALIA SRL","Colturano, Milano, Lombardia, Italia",9.337852,45.37977,"Colturano, Milano, Lombardia, Italia",0.940820365976067,"NULL","NULL","NULL","Italia","it","openstreetmap","MI","28.921.000","30.491.556","1.715.000","1.937.703","5,93","6,35",NA,"42,95",3,"Milano","Lombardia"
"250",218,"LOGISTICA MEDITERRANEA SPA","Elmas, Cagliari, Sardegna, Italia",9.0496306,39.2680862,"Su Masu/Elmas, Cagliari, Sardigna/Sardegna, 09030, Italia",0.868938705458436,"NULL","NULL","09030","Italia","it","openstreetmap","CA","28.850.689","32.971.865","461.684","300.008","1,60","0,91","5,95","4,11",20,"Cagliari","Sardegna"
"251",249,"AIR OCEAN CARGO SRL","Pioltello, Milano, Lombardia, Italia",9.3263354,45.5010216,"Pioltello, Milano, Lombardia, Italia",0.943583014922319,"NULL","NULL","NULL","Italia","it","openstreetmap","MI","28.830.183","29.425.365","1.469.560","1.395.159","5,10","4,74","56,52","51,03",3,"Milano","Lombardia"
"252",268,"INTERPORTO BOLOGNA SPA","Bentivoglio, Bologna, Emilia-Romagna, Italia",11.4171933,44.6357918,"Bentivoglio, Unione Reno Galliera, Bologna, Emilia-Romagna, 40018, Italia",1.00723629065035,"NULL","NULL","40018","Italia","it","openstreetmap","BO","28.752.016","27.342.837","-29.261","-1.348.770","-0,10","-4,93","-0,09","-4,22",8,"Bologna","Emilia-Romagna"
"253",233,"NCV NUOVA CAMP VELOCI","Crespellano, Bologna, Emilia-Romagna, Italia",11.130521,44.5105352,"Crespellano, Valsamoggia, Unione dei comuni Valli del Reno, Lavino e Samoggia, Bologna, Emilia-Romagna, 40053, Italia",0.994746597570951,"NULL","NULL","40053","Italia","it","openstreetmap","BO","28.469.056","31.101.090","-715.280","-473.609","-2,51","-1,52","-14,81","-8,55",8,"Bologna","Emilia-Romagna"
"254",258,"CENTRAL SHIPPING AGENCY SPA","Milano, Milano, Lombardia, Italia",9.1896346,45.4641943,"Milano, Lombardia, Italia",1.17906520787013,"NULL","NULL","NULL","Italia","it","openstreetmap","MI","28.190.650","28.724.977","1.069.704","1.470.580","3,79","5,12","15,52","23,62",3,"Milano","Lombardia"
"255",220,"STI SOC. TRASP. INDUSTRIALI SPA","Nogara, Verona, Veneto, Italia",11.0637333,45.1790124,"Nogara, Verona, Veneto, 37054, Italia",0.939994551039082,"NULL","NULL","37054","Italia","it","openstreetmap","VR","28.155.092","32.282.521","-1.103.013","59.128","-3,92","0,18","-140,80","2,33",5,"Verona","Veneto"
"256",250,"CONSORZIO TRASPORTI LOGISTICA","Scorze', Venezia, Veneto, Italia",12.108383,45.5713541,"Scorzè, Venezia, Veneto, Italia",0.78895090679248,"NULL","NULL","NULL","Italia","it","openstreetmap","VE","28.059.758","29.359.677","1.322","1.060","0,00","0,00","13,27","12,26",5,"Venezia","Veneto"
"257",746,"INTERPORTO TOSCANO A. VESPUCCI","Collesalvetti, Livorno, Toscana, Italia",10.476264,43.588912,"Collesalvetti, Livorno, Toscana, Italia",0.859042126246238,"NULL","NULL","NULL","Italia","it","openstreetmap","LI","28.041.430","5.656.555","4.315.000","55.841","15,39","0,99",NA,NA,9,"Livorno","Toscana"
"258",300,"GALLOZZI SHIPPING LTD. SPA","Salerno, Salerno, Campania, Italia",14.7594542,40.6803601,"Salerno, Campania, Italia",1.03459844517079,"NULL","NULL","NULL","Italia","it","openstreetmap","SA","27.923.431","24.957.431","199.050","513.868","0,71","2,06","10,61","30,74",15,"Salerno","Campania"
"259",194,"ZANINONI INTERNATIONAL SPA","Bagnatica, Bergamo, Lombardia, Italia",9.781057,45.660881,"Bagnatica, Bergamo, Lombardia, Italia",0.969792374452896,"NULL","NULL","NULL","Italia","it","openstreetmap","BG","27.863.230","37.204.510","23.922","463.398","0,09","1,25","0,29","5,67",3,"Bergamo","Lombardia"
"260",287,"EUROFRIGO SRL","Vitulazio, Caserta, Campania, Italia",14.216925,41.164116,"Vitulazio, Caserta, Campania, 81040, Italia",0.927684185399897,"NULL","NULL","81040","Italia","it","openstreetmap","CE","27.741.189","26.056.839","1.302.635","1.227.732","4,70","4,71","9,90","10,36",15,"Caserta","Campania"
"261",273,"INNOCENTI DEPOSITI SPA","Pioltello, Milano, Lombardia, Italia",9.3263354,45.5010216,"Pioltello, Milano, Lombardia, Italia",0.943583014922319,"NULL","NULL","NULL","Italia","it","openstreetmap","MI","27.540.282","27.150.757","387.890","-129.766","1,41","-0,48","0,80","-0,27",3,"Milano","Lombardia"
"262",278,"UPS HEALTHCARE ITALIA SRL","Formello, Roma, Lazio, Italia",12.400273,42.082521,"Formello, Roma Capitale, Lazio, Italia",0.926458698335865,"NULL","NULL","NULL","Italia","it","openstreetmap","RM","27.290.922","26.881.031","-813.233","-242.593","-2,98","-0,90","-7,69","-2,13",12,"Roma","Lazio"
"263",280,"DIFARCO SRL","Liscate, Italia",9.4090115,45.4815487,"Liscate, Milano, Lombardia, 20050, Italia",0.720546321952432,"NULL","NULL","20050","Italia","it","openstreetmap","MB","27.282.134","26.807.054","239.925","73.173","0,88","0,27","7,79","4,98",3,"Monza e della Brianza","Lombardia"
"264",245,"GAVA IFC SPA","Vignate, Milano, Lombardia, Italia",9.376651,45.496573,"Vignate, Milano, Lombardia, 20052, Italia",0.942634535227294,"NULL","NULL","20052","Italia","it","openstreetmap","MI","27.217.194","29.938.482","-2.958.494","75.629","-10,87","0,25","-102,92","2,17",3,"Milano","Lombardia"
"265",261,"MUTTI SPA","Podenzano, Piacenza, Emilia-Romagna, Italia",9.684967,44.956363,"Podenzano, Piacenza, Emilia-Romagna, 29027, Italia",0.996996204937801,"NULL","NULL","29027","Italia","it","openstreetmap","PC","27.024.014","28.169.175","147.746","231.467","0,55","0,82","3,12","5,05",8,"Piacenza","Emilia-Romagna"
"266",255,"GDT LOGISTIC SRL","Genova, Genova, Liguria, Italia",8.9338624,44.40726,"Genova, Liguria, Italia",1.12217796659308,"NULL","NULL","NULL","Italia","it","openstreetmap","GE","26.805.920","29.119.725","36.141","231.113","0,13","0,79","4,08","21,16",7,"Genova","Liguria"
"267",317,"C.T.S. COOP. TR. SANTARCANGELO","Santarcangelo, Italia",12.4627863,44.0861418,"Rimini Nord;Bellaria;Santarcangelo, Autostrada Adriatica, Variano, Santa Giustina, Rimini, Emilia-Romagna, 47822, Italia",0.21001,"NULL","NULL","47822","Italia","it","openstreetmap","RN","26.711.558","23.770.645","511.960","211.002","1,92","0,89","3,99","1,71",8,"Rimini","Emilia-Romagna"
"268",291,"TRASGO SRL","S. Pietro Mosezzo, Novara, Piemonte, Italia",8.5441897,45.4558807,"San Pietro Mosezzo, Novara, Piemonte, Italia",1.09196823459868,"NULL","NULL","NULL","Italia","it","openstreetmap","NO","26.575.065","25.506.316","956.750","274.936","3,60","1,08","9,84","3,13",1,"Novara","Piemonte"
"269",279,"TECNOFREIGHT SRL","Osio Sotto, Bergamo, Lombardia, Italia",9.589053,45.616078,"Osio Sotto, Bergamo, Lombardia, 24046, Italia",1.06046088207568,"NULL","NULL","24046","Italia","it","openstreetmap","BG","26.476.365","26.878.954","-34.055","13.665","-0,13","0,05","-6,56","2,47",3,"Bergamo","Lombardia"
"270",298,"NUOVA LOGISTICA LUCIANU SRL","Olbia, Italia",9.5027442,40.9232659,"Olbia, Nord-Est Sardegna, Sardigna/Sardegna, 07026, Italia",0.75648958157314,"NULL","Nord-Est Sardegna","07026","Italia","it","openstreetmap","SS","26.293.561","25.147.189","1.678.227","803.482","6,38","3,20","20,26","12,13",20,"Sassari","Sardegna"
"271",334,"VIGLIENZONE ADRIATICA SPA","Ravenna, Ravenna, Emilia-Romagna, Italia",12.2017617,44.4161414,"Ravenna, Emilia-Romagna, Italia",1.14698231321198,"NULL","NULL","NULL","Italia","it","openstreetmap","RA","25.945.406","21.824.392","541.974","537.313","2,09","2,46","16,88","21,91",8,"Ravenna","Emilia-Romagna"
"272",289,"PRISMA LOGISTICS SPA","Verona, Verona, Veneto, Italia",10.9924122,45.4384958,"Verona, Veneto, Italia",1.08615738888285,"NULL","NULL","NULL","Italia","it","openstreetmap","VR","25.819.211","25.957.937","311.253","458.669","1,21","1,77","12,00","24,62",5,"Verona","Veneto"
"273",271,"ADAMI AUTOTRASPORTI SPA","Negrar, Verona, Veneto, Italia",10.9400217,45.5296706,"Negrar di Valpolicella, Verona, Veneto, 37024, Italia",0.931976120195011,"NULL","NULL","37024","Italia","it","openstreetmap","VR","25.629.342","27.273.203","131.746","367.530","0,51","1,35","1,06","3,06",5,"Verona","Veneto"
"274",272,"MAG.DI SRL","Frascati, Roma, Lazio, Italia",12.6803684,41.8082452,"Frascati, Roma Capitale, Lazio, 00044, Italia",0.964611570055584,"NULL","NULL","00044","Italia","it","openstreetmap","RM","25.559.684","27.178.485","943.488","626.958","3,69","2,31","8,72","6,61",12,"Roma","Lazio"
"275",304,"GUGEL LOGISTICA SRL","Falze' di Piave, Treviso, Veneto, Italia",12.1677081,45.8607248,"Falzè di Piave, Sernaglia della Battaglia, Treviso, Veneto, 31010, Italia",0.72324803174626,"NULL","NULL","31010","Italia","it","openstreetmap","TV","25.552.272","24.814.426","1.118.692","654.360","4,38","2,64","30,49","27,59",5,"Treviso","Veneto"
"276",445,"COLO' F.LLI SRL","Livorno, Livorno, Toscana, Italia",10.3091256,43.5507317,"Livorno, Toscana, Italia",1.04561736625449,"NULL","NULL","NULL","Italia","it","openstreetmap","LI","25.448.932","15.246.536","1.914.826","530.825","7,52","3,48","89,05","69,35",9,"Livorno","Toscana"
"277",266,"FAVARO SERVIZI SRL","Riese Pio X, Treviso, Veneto, Italia",11.917005,45.7292223,"Riese Pio X, Treviso, Veneto, 31039, Italia",1.09947049201671,"NULL","NULL","31039","Italia","it","openstreetmap","TV","25.344.781","27.742.452","1.681.864","273.835","6,64","0,99","21,93","3,81",5,"Treviso","Veneto"
"278",216,"SIFTE BERTI SPA","Lainate, Milano, Lombardia, Italia",9.028461,45.5717302,"Lainate, Milano, Lombardia, 20045, Italia",0.947662994973327,"NULL","NULL","20045","Italia","it","openstreetmap","MI","25.195.581","33.356.753","-2.862.948","-1.193.628","-11,36","-3,58","-11,84","-5,12",3,"Milano","Lombardia"
"279",296,"TRANS WORLD SHIPPING SRL","Civitanova Marche, Macerata, Marche, Italia",13.7229297,43.3055233,"Civitanova Marche, Macerata, Marche, 62012, Italia",1.01580322886746,"NULL","NULL","62012","Italia","it","openstreetmap","MC","25.156.112","25.256.114","1.047.868","318.659","4,17","1,26","29,89","12,98",11,"Macerata","Marche"
"280",629,"WORLD CARGO SRL","Roma, Roma, Lazio, Italia",12.4829321,41.8933203,"Roma, Roma Capitale, Lazio, Italia",1.22961071806895,"NULL","NULL","NULL","Italia","it","openstreetmap","RM","25.105.642","8.350.856","480.573","-83.911","1,91","-1,00","57,25","-23,39",12,"Roma","Lazio"
"281",259,"AUTOTRASPORTI DE GIROLAMI SPA","Motta di Livenza, Treviso, Veneto, Italia",12.6105482,45.77663,"Motta di Livenza, Treviso, Veneto, 31045, Italia",1.11096958712399,"NULL","NULL","31045","Italia","it","openstreetmap","TV","24.936.513","28.505.838","-1.046.394","75.744","-4,20","0,27","-39,65","2,06",5,"Treviso","Veneto"
"282",284,"F.LLI FOPPIANI TRASPORTI SRL","Milano, Milano, Lombardia, Italia",9.1896346,45.4641943,"Milano, Lombardia, Italia",1.17906520787013,"NULL","NULL","NULL","Italia","it","openstreetmap","MI","24.747.117","26.428.515","174.226","248.432","0,70","0,94","1,95","3,00",3,"Milano","Lombardia"
"283",275,"ROCCO TRASPORTI SRL","Battipaglia, Salerno, Campania, Italia",14.9821443,40.6092539,"Battipaglia, Salerno, Campania, 84091, Italia",0.954086428356111,"NULL","NULL","84091","Italia","it","openstreetmap","SA","24.679.942","27.124.357","140.264","127.815","0,57","0,47",NA,NA,15,"Salerno","Campania"
"284",303,"RIZZATO TRASPORTI LOGISTICA","Cisterna, Latina, Lazio, Italia",12.829048,41.590639,"Cisterna di Latina, Latina, Lazio, 04012, Italia",0.865942584095776,"NULL","NULL","04012","Italia","it","openstreetmap","LT","24.657.060","24.860.423","152.907","151.663","0,62","0,61","8,40","9,10",12,"Latina","Lazio"
"285",337,"GI.MA. TRANS SRL","Pozzo D'adda, Milano, Lombardia, Italia",9.5003771,45.5756656,"Pozzo d'Adda, Milano, Lombardia, Italia",1.125809619677,"NULL","NULL","NULL","Italia","it","openstreetmap","MI","24.549.896","21.593.683","1.895.000","736.485","7,72","3,41",NA,NA,3,"Milano","Lombardia"
"286",314,"ROHLIG ITALIA SPA","Bentivoglio, Bologna, Emilia-Romagna, Italia",11.4171933,44.6357918,"Bentivoglio, Unione Reno Galliera, Bologna, Emilia-Romagna, 40018, Italia",1.00723629065035,"NULL","NULL","40018","Italia","it","openstreetmap","BO","24.518.544","24.194.330","203.130","162.702","0,83","0,67","14,52","13,60",8,"Bologna","Emilia-Romagna"
"287",281,"SUD TRASPORTI LOGIST. INTEGR.","Catania, Catania, Sicilia, Italia",15.0873718,37.5023612,"Catania, Sicilia, 95121, Italia",1.05212263789884,"NULL","NULL","95121","Italia","it","openstreetmap","CT","24.504.648","26.770.195","2.257.103","2.792.969","9,21","10,43","42,54","37,00",19,"Catania","Sicilia"
"288",301,"HUPAC SPA","Busto Arsizio, Varese, Lombardia, Italia",8.8520522,45.6119057,"Busto Arsizio, Varese, Lombardia, 21052, Italia",1.07552278283948,"NULL","NULL","21052","Italia","it","openstreetmap","VA","24.456.378","24.909.839","688.131","650.968","2,81","2,61","6,38","8,21",3,"Varese","Lombardia"
"289",276,"AUTOTRASPORTI CHIARCOSSO","Udine, Udine, Friuli Venezia Giulia, Italia",13.2358377,46.0634632,"Udine, Friuli-Venezia Giulia, 33100, Italia",1.22967755572484,"NULL","NULL","33100","Italia","it","openstreetmap","UD","24.386.308","26.958.969","-1.410.396","71.766","-5,78","0,27","-51,86","2,41",6,"Udine","Friuli Venezia Giulia"
"290",352,"ASENDIA ITALY","Tribiano, Milano, Lombardia, Italia",9.378952,45.413371,"Tribiano, Milano, Lombardia, Italia",0.938932379092076,"NULL","NULL","NULL","Italia","it","openstreetmap","MI","24.222.521","20.433.951","79.433","-136.283","0,33","-0,67","3,37","-5,98",3,"Milano","Lombardia"
"291",286,"ELECTROLUX LOGISTICS SPA","Porcia, Pordenone, Friuli Venezia Giulia, Italia",12.6017808747864,45.946555,"Porcia, Pordenone, Friuli-Venezia Giulia, 33080, Italia",1.07859936585723,"NULL","NULL","33080","Italia","it","openstreetmap","PN","24.193.975","26.163.008","718.858","736.003","2,97","2,81","43,77","44,42",6,"Pordenone","Friuli Venezia Giulia"
"292",285,"POLO AUTOTRASPORTI","Cesena, Forli'-Cesena, Emilia-Romagna, Italia",12.2422442,44.136352,"Cesena, Unione dei comuni Valle del Savio, Forlì-Cesena, Emilia-Romagna, Italia",1.07638172380911,"NULL","Forlì-Cesena","NULL","Italia","it","openstreetmap","FC","23.960.851","26.398.436","50.468","28.446","0,21","0,11","1,30","0,73",8,"Forli'-Cesena","Emilia-Romagna"
"293",310,"INTERFASHION TR. NORD AFRICA","Vicenza, Vicenza, Veneto, Italia",11.5478825,45.5488306,"Vicenza, Veneto, Italia",1.04915570964141,"NULL","NULL","NULL","Italia","it","openstreetmap","VI","23.920.208","24.563.325","1.254.883","978.830","5,25","3,98","16,34","23,29",5,"Vicenza","Veneto"
"294",267,"CAVALLO GIORDANO VALLAURI","Boves, Cuneo, Piemonte, Italia",7.5518938,44.3296258,"Boves, Cuneo, Piemonte, 12012, Italia",0.984292589971048,"NULL","NULL","12012","Italia","it","openstreetmap","CN","23.765.131","27.588.651","2.795.050","2.738.644","11,76","9,93","14,93","15,91",1,"Cuneo","Piemonte"
"295",NA,"FEREST RAIL SPA (2019 DA 1/4)","Udine, Udine, Friuli Venezia Giulia, Italia",13.2358377,46.0634632,"Udine, Friuli-Venezia Giulia, 33100, Italia",1.22967755572484,"NULL","NULL","33100","Italia","it","openstreetmap","UD","23.744.831","13.650.563","1.073.904","324.974","4,52","2,38","5,46","3,75",6,"Udine","Friuli Venezia Giulia"
"296",297,"FASULO SRL","Caiazzo, Caserta, Campania, Italia",14.3649478,41.1783215,"Caiazzo, Caserta, Campania, 81013, Italia",0.934024211333493,"NULL","NULL","81013","Italia","it","openstreetmap","CE","23.646.800","25.189.367","606.454","324.829","2,56","1,29","12,11","7,45",15,"Caserta","Campania"
"297",241,"TRAILER SPA","Vobarno, Brescia, Lombardia, Italia",10.499454,45.6436432,"Vobarno, Comunità montana della Valle Sabbia, Brescia, Lombardia, 25079, Italia",0.964340522943015,"NULL","NULL","25079","Italia","it","openstreetmap","BS","23.543.747","30.230.936","379.381","733.875","1,61","2,43","5,32","10,87",3,"Brescia","Lombardia"
"298",326,"UPS SCS (ITALY) SRL","Segrate, Milano, Lombardia, Italia",9.2948204,45.4907352,"Segrate, Milano, Lombardia, 20054, Italia",0.945606179366181,"NULL","NULL","20054","Italia","it","openstreetmap","MI","23.207.974","23.006.059","567.595","966.914","2,45","4,20","5,76","10,40",3,"Milano","Lombardia"
"299",269,"FRANCESCO PARISI SPA","Trieste, Trieste, Friuli Venezia Giulia, Italia",13.7772781,45.6496485,"Trieste, Friuli-Venezia Giulia, 34121-34151, Italia",1.27101328177223,"NULL","NULL","34121-34151","Italia","it","openstreetmap","TS","23.104.960","27.337.289","-792.257","3.699","-3,43","0,01","-12,28","0,06",6,"Trieste","Friuli Venezia Giulia"
"300",294,"D'ALTERIO GROUP LOGISTICA","Villaricca, Napoli, Campania, Italia",14.189828,40.921611,"Villaricca, Napoli, Campania, Italia",0.909923562418002,"NULL","NULL","NULL","Italia","it","openstreetmap","NA","22.992.385","25.319.053","268.056","286.864","1,17","1,13","8,34","9,74",15,"Napoli","Campania"
"301",327,"NUOVA MOSCATO SRL","Modena, Modena, Emilia-Romagna, Italia",10.9255707,44.6458885,"Modena, Emilia-Romagna, Italia",1.15061591268387,"NULL","NULL","NULL","Italia","it","openstreetmap","MO","22.970.575","22.834.710","398.952","471.666","1,74","2,07","6,90","8,66",8,"Modena","Emilia-Romagna"
"302",242,"OM LOG SPA","Settala, Milano, Lombardia, Italia",9.3867659,45.4544127,"Settala, Milano, Lombardia, 20049, Italia",0.939493698084709,"NULL","NULL","20049","Italia","it","openstreetmap","MI","22.745.422","30.046.251","10.921.159","4.768.949","48,01","15,87","90,62","109,26",3,"Milano","Lombardia"
"303",302,"B. & B. ENTERPRISE SRL","Manerbio, Brescia, Lombardia, Italia",10.13517,45.355777,"Manerbio, Brescia, Lombardia, 25025, Italia",0.967091013351358,"NULL","NULL","25025","Italia","it","openstreetmap","BS","22.685.427","24.862.253","1.134.863","605.951","5,00","2,44","33,68","18,73",3,"Brescia","Lombardia"
"304",318,"ITX CARGO (CONS.)","Origgio, Varese, Lombardia, Italia",9.0180613,45.5976933,"Origgio, Varese, Lombardia, 21040, Italia",0.932353071516346,"NULL","NULL","21040","Italia","it","openstreetmap","VA","22.656.184","23.688.097","120.146","-22.176","0,53","-0,09",NA,NA,3,"Varese","Lombardia"
"305",321,"ERIXMAR SRL","Genova, Genova, Liguria, Italia",8.9338624,44.40726,"Genova, Liguria, Italia",1.12217796659308,"NULL","NULL","NULL","Italia","it","openstreetmap","GE","22.654.222","23.595.766","575.533","34.150","2,54","0,14","71,60","14,96",7,"Genova","Liguria"
"306",368,"R.A.D. LOGISTICA SOC. COOP.","Rodano, Milano, Lombardia, Italia",9.3549881,45.4751079,"Rodano, Milano, Lombardia, 20053, Italia",0.924513357150021,"NULL","NULL","20053","Italia","it","openstreetmap","MI","22.636.307","19.100.583","52.609","38.887","0,23","0,20","2,10","1,63",3,"Milano","Lombardia"
"307",316,"TRASCOOP E SERVIZI SCARL","Castel San Pietro, Italia",11.1123464492147,46.26907755,"Castel San Pietro, Strada forestale Monte Zana, Vigo di Ton, Ton, Comunità della Val di Non, Provincia di Trento, Trentino-Alto Adige/Südtirol, 38010, Italia",0.686645429377189,"NULL","NULL","38010","Italia","it","openstreetmap","BO","22.571.570","24.098.474","42.899","7.898","0,19","0,03","1,60","0,30",8,"Bologna","Emilia-Romagna"
"308",315,"MAGLI INTERMODAL SERVICE","Spinadesco, Cremona, Lombardia, Italia",9.9296724,45.1487508,"Spinadesco, Cremona, Lombardia, Italia",0.925315627887998,"NULL","NULL","NULL","Italia","it","openstreetmap","CR","22.522.021","24.103.845","107.836","-68.743","0,48","-0,29","1,91","-5,08",3,"Cremona","Lombardia"
"309",320,"AMENDOLA SRL","Roccapiemonte, Salerno, Campania, Italia",14.6923748,40.762465,"Roccapiemonte, Salerno, Campania, 84086, Italia",0.936556449981055,"NULL","NULL","84086","Italia","it","openstreetmap","SA","22.512.225","23.614.103","800.773","342.869","3,56","1,45","8,88","4,18",15,"Salerno","Campania"
"310",331,"ITALTRADE SRL","Catania, Catania, Sicilia, Italia",15.0873718,37.5023612,"Catania, Sicilia, 95121, Italia",1.05212263789884,"NULL","NULL","95121","Italia","it","openstreetmap","CT","22.436.303","22.021.681","598.477","463.684","2,67","2,11","6,91","5,76",19,"Catania","Sicilia"
"311",386,"MATRAS SRL","Genova, Genova, Liguria, Italia",8.9338624,44.40726,"Genova, Liguria, Italia",1.12217796659308,"NULL","NULL","NULL","Italia","it","openstreetmap","GE","22.274.908","17.739.340","510.924","590.764","2,29","3,33","14,80","18,51",7,"Genova","Liguria"
"312",348,"S.C.T. SALERNO CONT. TERMINAL","Salerno, Salerno, Campania, Italia",14.7594542,40.6803601,"Salerno, Campania, Italia",1.03459844517079,"NULL","NULL","NULL","Italia","it","openstreetmap","SA","22.269.859","20.937.011","1.482.280","585.653","6,66","2,80","13,62","6,70",15,"Salerno","Campania"
"313",307,"TRAMO SRL","Giussano, Italia",9.2097294,45.6993814,"Giussano, Monza e della Brianza, Lombardia, 20833, Italia",0.684615534471326,"NULL","NULL","20833","Italia","it","openstreetmap","MI","22.214.643","24.599.752","544.217","401.688","2,45","1,63","11,52","10,87",3,"Milano","Lombardia"
"314",351,"MONAVA SPA","Cardano Al Campo, Varese, Lombardia, Italia",8.7724976,45.645717,"Cardano al Campo, Varese, Lombardia, 21017, Italia",1.12332825522418,"NULL","NULL","21017","Italia","it","openstreetmap","VA","22.143.144","20.531.352","729.866","105.499","3,30","0,51","11,80","8,83",3,"Varese","Lombardia"
"315",265,"NIINIVIRTA (GRP DI MARTINO)","Tribiano, Milano, Lombardia, Italia",9.378952,45.413371,"Tribiano, Milano, Lombardia, Italia",0.938932379092076,"NULL","NULL","NULL","Italia","it","openstreetmap","MI","22.118.573","27.771.931","320.461","513.844","1,45","1,85","6,54","19,20",3,"Milano","Lombardia"
"316",330,"CTS COMP.TRASP.SERVIZI SPA","San Giuliano Milanese, Milano, Lombardia, Italia",9.291851,45.39427,"San Giuliano Milanese, Milano, Lombardia, 20098, Italia",1.13497891531428,"NULL","NULL","20098","Italia","it","openstreetmap","MI","22.025.251","22.208.114","642.433","75.772","2,92","0,34","21,29","6,99",3,"Milano","Lombardia"
"317",283,"S.T.C. SERV.TRASP. COMBINATI","Genova, Genova, Liguria, Italia",8.9338624,44.40726,"Genova, Liguria, Italia",1.12217796659308,"NULL","NULL","NULL","Italia","it","openstreetmap","GE","22.005.256","26.457.121","89.247","375.707","0,41","1,42","2,31","9,72",7,"Genova","Liguria"
"318",311,"M2LOG SRL (GRUPPO MIROGLIO)","Bra, Cuneo, Piemonte, Italia",7.8542707,44.6976778,"Bra, Cuneo, Piemonte, 12042, Italia",0.987099947331506,"NULL","NULL","12042","Italia","it","openstreetmap","CN","21.984.285","24.508.875","565.574","150.244","2,57","0,61","2,24","0,61",1,"Cuneo","Piemonte"
"319",346,"FISCHER & RECHSTEINER SPA","Valmadrera, Lecco, Lombardia, Italia",9.358244,45.846282,"Valmadrera, Lecco, Lombardia, 23868, Italia",0.91143955510971,"NULL","NULL","23868","Italia","it","openstreetmap","LC","21.798.183","21.054.229","-261.050","57.688","-1,20","0,27","-13,88","2,69",3,"Lecco","Lombardia"
"320",357,"S.I.A. SISTEMA ITALIA SRL","Oleggio, Novara, Piemonte, Italia",8.6370679,45.5972309,"Oleggio, Novara, Piemonte, 28047, Italia",0.912890478974254,"NULL","NULL","28047","Italia","it","openstreetmap","NO","21.755.334","20.236.583","840.330","594.588","3,86","2,94","20,36","21,42",1,"Novara","Piemonte"
